$GPRMC,030350.222,A,2741.2288,N,08643.9068,E,0.85,15.12,300413,,,A*58
$GPGGA,030515.222,2741.2424,N,08643.9129,E,2,03,8.9,2846.6,M,-37.4,M,3.1,0000*68
$GPGSA,A,2,22,11,14,,,,,,,,,,8.9,8.9,1.0*37
$GPGSV,3,1,12,22,69,050,36,14,58,347,41,11,14,306,32,31,45,202,31*7A
$GPGSV,3,2,12,18,44,100,35,25,22,102,,21,15,164,,12,13,069,*7B
$GPGSV,3,3,12,19,07,263,,24,04,038,,01,03,323,,06,01,226,*7A
$GPRMC,030515.222,A,2741.2424,N,08643.9129,E,0.33,212.35,300413,,,D*63
$GPVTG,212.35,T,,M,0.33,N,0.6,K,N*03
$GPGGA,030735.222,2741.2424,N,08643.9042,E,1,03,7.5,2846.6,M,-37.4,M,,0000*48
$GPGSA,A,2,22,14,11,,,,,,,,,,7.6,7.5,1.0*34
$GPGSV,3,1,12,22,69,052,39,14,57,348,40,11,14,305,33,31,46,202,25*72
$GPGSV,3,2,12,18,43,101,27,25,22,102,,21,14,164,,12,13,069,*7F
$GPGSV,3,3,12,19,07,263,,24,04,038,,01,03,323,,06,01,226,*7A
$GPRMC,030735.222,A,2741.2424,N,08643.9042,E,0.38,8.03,300413,,,A*6D
$GPVTG,8.03,T,,M,0.38,N,0.7,K,N*05
$GPGGA,030740.222,2741.2453,N,08643.9058,E,1,03,7.5,2846.6,M,-37.4,M,,0000*41
$GPGSA,A,2,22,14,11,,,,,,,,,,7.6,7.5,1.0*34
$GPGSV,3,1,12,22,69,052,39,14,57,348,41,11,14,305,33,31,46,202,25*73
$GPGSV,3,2,12,18,43,101,24,25,22,102,,21,14,164,,12,13,069,*7C
$GPGSV,3,3,12,19,07,263,,24,04,038,,01,03,323,,06,01,226,*7A
$GPRMC,030740.222,A,2741.2453,N,08643.9058,E,0.12,29.05,300413,,,A*59
$GPGGA,032400.000,2734.9691,N,08613.2395,E,1,05,2.3,3978.9,M,-37.8,M,,0000*44
$GPGSA,A,3,14,22,12,11,25,,,,,,,,2.9,2.3,1.6*3E
$GPGSV,3,1,12,22,67,076,43,14,55,002,47,25,25,093,35,11,17,299,25*74
$GPGSV,3,2,12,12,13,061,31,31,55,205,29,18,38,109,27,01,09,320,25*70
$GPGSV,3,3,12,21,07,162,26,32,05,309,22,19,04,256,,41,57,186,29*7F
$GPRMC,032400.000,A,2734.9691,N,08613.2395,E,141.56,276.02,300413,,,A*6C
$GPVTG,276.02,T,,M,141.56,N,262.2,K,A*0F
$GPGGA,032405.000,2734.9914,N,08613.0201,E,1,06,1.4,3977.9,M,-37.8,M,,0000*45
$GPGSA,A,3,14,22,12,11,25,31,,,,,,,2.1,1.4,1.6*30
$GPGSV,3,1,12,22,67,076,43,31,55,205,28,14,55,002,47,18,38,109,27*7B
$GPGSV,3,2,12,25,25,093,35,11,17,299,25,12,13,061,31,01,09,319,14*76
$GPGSV,3,3,12,21,07,162,26,32,05,309,28,19,04,256,,41,57,186,28*74
$GPRMC,032405.000,A,2734.9914,N,08613.0201,E,141.67,276.56,300413,,,A*66
$GPVTG,276.56,T,,M,141.67,N,262.4,K,A*0A
$GPGGA,032410.000,2735.0145,N,08612.8002,E,1,06,1.4,3974.4,M,-37.8,M,,0000*43
$GPGSA,A,3,14,22,12,11,25,31,,,,,,,2.1,1.4,1.6*30
$GPGSV,3,1,11,22,67,076,43,31,55,205,28,14,55,002,47,18,38,109,33*7D
$GPGSV,3,2,11,25,25,093,34,11,17,299,26,12,13,061,30,01,09,319,29*78
$GPGSV,3,3,11,21,07,162,25,32,05,309,23,19,04,256,*4D
$GPRMC,032410.000,A,2735.0145,N,08612.8002,E,142.16,276.91,300413,,,A*60
$GPVTG,276.91,T,,M,142.16,N,263.3,K,A*02
$GPGGA,032415.000,2735.0381,N,08612.5781,E,1,06,1.4,3964.5,M,-37.8,M,,0000*4D
$GPGSA,A,3,14,22,12,11,25,31,,,,,,,2.1,1.4,1.6*30
$GPGSV,3,1,11,22,67,076,42,31,55,205,27,14,55,002,47,18,38,109,32*72
$GPGSV,3,2,11,25,25,093,33,11,17,299,26,12,13,061,30,01,09,319,27*71
$GPGSV,3,3,11,21,07,162,25,32,05,309,25,19,04,256,*4B
$GPRMC,032415.000,A,2735.0381,N,08612.5781,E,144.33,276.85,300413,,,A*6A
$GPVTG,276.85,T,,M,144.33,N,267.3,K,A*02
$GPGGA,032420.000,2735.0590,N,08612.3492,E,1,06,1.4,3950.7,M,-37.8,M,,0000*4F
$GPGSA,A,3,14,22,12,11,25,31,,,,,,,2.1,1.4,1.6*30
$GPGSV,3,1,11,22,67,076,42,31,55,205,27,14,55,002,47,18,38,109,31*71
$GPGSV,3,2,11,25,25,093,33,11,17,299,25,12,13,061,30,01,09,319,21*74
$GPGSV,3,3,11,21,07,162,25,32,05,309,25,19,04,256,*4B
$GPRMC,032420.000,A,2735.0590,N,08612.3492,E,147.52,276.09,300413,,,A*6D
$GPVTG,276.09,T,,M,147.52,N,273.2,K,A*06
$GPGGA,032425.000,2735.0792,N,08612.1181,E,1,06,1.4,3938.4,M,-37.8,M,,0000*42
$GPGSA,A,3,14,22,12,11,25,31,,,,,,,2.1,1.4,1.6*30
$GPGSV,3,1,11,22,67,076,42,31,55,205,27,14,55,002,47,18,38,109,27*76
$GPGSV,3,2,11,25,25,093,33,11,17,299,25,12,13,061,31,01,09,319,19*7E
$GPGSV,3,3,11,21,07,162,25,32,05,309,26,19,04,256,*48
$GPVTG,275.46,T,,M,148.62,N,275.2,K,A*04
$GPGGA,032430.000,2735.0977,N,08611.8865,E,1,06,1.4,3928.8,M,-37.8,M,,0000*47
$GPGSA,A,3,14,22,12,11,25,31,,,,,,,2.1,1.4,1.6*30
$GPGSV,3,1,11,22,67,076,42,31,55,205,28,14,55,002,47,18,38,109,18*75
$GPGSV,3,2,11,25,25,093,32,11,17,299,24,12,13,061,31,01,09,319,18*7F
$GPGSV,3,3,11,21,07,162,25,32,05,309,26,19,04,256,*48
$GPRMC,032430.000,A,2735.0977,N,08611.8865,E,148.72,275.02,300413,,,A*60
$GPVTG,275.02,T,,M,148.72,N,275.4,K,A*03
$GPGGA,032435.000,2735.1155,N,08611.6547,E,1,06,1.4,3920.3,M,-37.8,M,,0000*4B
$GPGSA,A,3,14,22,12,11,25,31,,,,,,,2.1,1.4,1.6*30
$GPGSV,3,1,11,22,67,076,42,31,55,205,28,14,55,002,47,18,38,109,21*7F
$GPGSV,3,2,11,25,25,093,32,11,17,299,25,12,13,061,31,01,09,319,20*75
$GPGSV,3,3,11,21,07,162,25,32,05,309,26,19,04,256,*48
$GPRMC,032435.000,A,2735.1155,N,08611.6547,E,148.89,274.83,300413,,,A*63
$GPVTG,274.83,T,,M,148.89,N,275.7,K,A*0C
$GPGGA,032440.000,2735.1322,N,08611.4223,E,1,06,1.4,3910.9,M,-37.8,M,,0000*45
$GPGSA,A,3,14,22,12,11,25,31,,,,,,,2.1,1.4,1.6*30
$GPGSV,3,1,11,22,67,076,42,31,55,205,28,14,55,002,47,18,38,109,21*7F
$GPGSV,3,2,11,25,25,093,32,11,17,299,26,12,13,061,31,01,09,319,21*77
$GPGSV,3,3,11,21,07,162,24,32,05,309,26,19,04,256,*49
$GPRMC,032440.000,A,2735.1322,N,08611.4223,E,149.43,274.48,300413,,,A*64
$GPVTG,274.48,T,,M,149.43,N,276.7,K,A*0F
$GPGGA,032445.000,2735.1481,N,08611.1889,E,1,06,1.4,3899.0,M,-37.8,M,,0000*48
$GPGSA,A,3,14,22,12,11,25,31,,,,,,,2.1,1.4,1.6*30
$GPGSV,3,1,11,22,67,076,42,31,55,205,29,14,55,002,47,18,38,109,14*78
$GPGSV,3,2,11,25,25,093,32,11,17,299,27,12,13,061,31,01,09,319,25*72
$GPGSV,3,3,11,21,07,162,24,32,05,309,23,19,04,256,*4C
$GPRMC,032445.000,A,2735.1481,N,08611.1889,E,149.70,274.33,300413,,,A*6C
$GPVTG,274.33,T,,M,149.70,N,277.2,K,A*07
$GPGGA,032450.000,2735.1624,N,08610.9553,E,1,06,1.4,3888.8,M,-37.8,M,,0000*4A
$GPGSA,A,3,14,22,12,11,25,31,,,,,,,2.1,1.4,1.6*30
$GPGSV,3,1,11,22,67,076,29,31,55,205,27,14,55,002,26,18,38,109,18*70
$GPGSV,3,2,11,25,25,093,18,11,17,299,24,12,13,061,23,01,09,319,22*7D
$GPGSV,3,3,11,21,07,162,20,32,05,309,19,19,04,256,21*42
$GPRMC,032450.000,A,2735.1624,N,08610.9553,E,149.16,273.84,300413,,,A*6D
$GPVTG,273.84,T,,M,149.16,N,276.2,K,A*0D
$GPGGA,032455.000,2735.1781,N,08610.7229,E,1,06,1.4,3880.7,M,-37.8,M,,0000*42
$GPGSA,A,3,14,22,12,11,25,31,,,,,,,2.1,1.4,1.6*30
$GPGSV,3,1,11,22,67,076,28,31,55,205,25,14,55,002,29,18,38,109,24*73
$GPGSV,3,2,11,25,25,093,20,11,17,299,26,12,13,061,24,01,09,319,24*75
$GPRMC,032455.000,A,2735.1781,N,08610.7229,E,149.22,274.19,300413,,,A*66
$GPVTG,274.19,T,,M,149.22,N,276.3,K,A*08
$GPGGA,032500.000,2735.1878,N,08610.4884,E,1,05,1.5,3872.9,M,-37.8,M,,0000*45
$GPGSA,A,3,14,22,12,11,31,,,,,,,,2.3,1.5,1.8*3A
$GPGSV,3,1,11,22,67,076,26,31,55,205,13,14,55,002,18,18,38,109,14*79
$GPGSV,3,2,11,25,25,093,09,11,17,299,26,12,13,061,19,01,09,319,24*70
$GPGSV,3,3,11,21,07,162,13,32,05,309,22,19,04,256,14*4C
$GPRMC,032500.000,A,2735.1878,N,08610.4884,E,150.41,271.85,300413,,,A*6D
$GPGGA,032505.000,2735.2020,N,08610.2557,E,1,05,2.3,3862.9,M,-37.8,M,,0000*47
$GPGSA,A,3,14,22,12,11,25,,,,,,,,2.8,2.3,1.6*3F
$GPGSV,3,1,11,22,67,076,26,31,55,205,,14,55,002,27,18,38,109,15*76
$GPGSV,3,2,11,25,25,093,20,11,17,299,27,12,13,061,20,01,09,319,25*71
$GPGSV,3,3,11,21,07,162,,32,05,309,22,19,04,256,13*49
$GPRMC,032505.000,A,2735.2020,N,08610.2557,E,149.54,273.95,300413,,,A*64
$GPVTG,273.95,T,,M,149.54,N,276.9,K,A*00
$GPGGA,032510.000,2735.2208,N,08610.0224,E,1,05,2.3,3852.0,M,-37.8,M,,0000*40
$GPGSA,A,3,14,22,12,11,25,,,,,,,,2.8,2.3,1.6*3F
$GPGSV,3,1,11,22,67,076,27,31,55,205,,14,55,002,27,18,38,109,*73
$GPGSV,3,2,11,25,25,093,21,11,17,299,28,12,13,061,20,01,09,319,25*7F
$GPGSV,3,3,11,21,07,162,,32,05,309,24,19,04,256,*4D
$GPRMC,032510.000,A,2735.2208,N,08610.0224,E,150.55,274.15,300413,,,A*6F
$GPVTG,274.15,T,,M,150.55,N,278.8,K,A*09
$GPGGA,032515.000,2735.2357,N,08609.7883,E,1,05,2.3,3839.8,M,-37.8,M,,0000*43
$GPGSA,A,3,14,22,12,11,25,,,,,,,,2.8,2.3,1.6*3F
$GPGSV,3,1,11,22,67,076,16,31,55,205,22,14,55,002,15,18,38,109,*70
$GPGSV,3,2,11,25,25,093,17,11,17,299,28,12,13,061,20,01,09,319,20*7F
$GPGSV,3,3,11,21,07,162,,32,05,309,30,19,04,256,23*49
$GPRMC,032515.000,A,2735.2357,N,08609.7883,E,150.83,273.78,300413,,,A*6E
$GPVTG,273.78,T,,M,150.83,N,279.3,K,A*04
$GPGGA,032520.000,2735.2531,N,08609.5525,E,1,05,2.3,3831.4,M,-37.8,M,,0000*44
$GPGSA,A,3,14,22,12,11,25,,,,,,,,2.8,2.3,1.6*3F
$GPGSV,3,1,11,22,67,076,21,31,55,205,,14,55,002,30,18,38,109,*73
$GPGSV,3,2,11,25,25,093,18,11,17,299,25,12,13,061,20,01,09,319,25*78
$GPGSV,3,3,11,21,07,162,,32,05,309,17,19,04,256,24*4B
$GPRMC,032520.000,A,2735.2531,N,08609.5525,E,151.51,275.05,300413,,,A*6F
$GPVTG,275.05,T,,M,151.51,N,280.6,K,A*05
$GPGGA,032525.000,2735.2711,N,08609.3180,E,1,06,1.4,3824.5,M,-37.8,M,,0000*4E
$GPGSA,A,3,14,22,12,11,25,31,,,,,,,2.1,1.4,1.6*30
$GPGSV,3,1,11,22,67,076,35,31,55,205,21,14,55,002,36,18,38,109,26*77
$GPGSV,3,2,11,25,25,093,18,11,17,299,24,12,13,061,22,01,09,319,25*7B
$GPGSV,3,3,11,21,07,162,,32,05,309,27,19,04,256,24*48
$GPVTG,274.37,T,,M,150.47,N,278.7,K,A*05
$GPGGA,032530.000,2735.2885,N,08609.0830,E,1,05,2.3,3816.0,M,-37.8,M,,0000*4A
$GPGSA,A,3,14,22,12,11,25,,,,,,,,2.8,2.3,1.6*3F
$GPGSV,3,1,11,22,67,076,34,31,55,205,14,14,55,002,35,18,38,109,26*73
$GPGSV,3,2,11,25,25,093,19,11,17,299,24,12,13,061,14,01,09,319,26*7C
$GPGSV,3,3,11,21,07,162,,32,05,309,27,19,04,256,25*49
$GPRMC,032530.000,A,2735.2885,N,08609.0830,E,150.88,275.06,300413,,,A*66
$GPVTG,275.06,T,,M,150.88,N,279.4,K,A*07
$GPGGA,032535.000,2735.3098,N,08608.8486,E,1,03,3.6,3811.4,M,-37.8,M,,0000*43
$GPGSA,A,2,14,22,11,,,,,,,,,,3.8,3.6,1.0*39
$GPGSV,3,1,12,22,67,076,34,31,55,205,16,14,55,002,35,18,38,109,27*73
$GPGSV,3,2,12,25,25,093,,11,17,299,24,12,13,061,,01,09,319,26*72
$GPGSV,3,3,12,21,07,162,,32,05,309,26,19,04,256,25,41,57,186,28*79
$GPRMC,032535.000,A,2735.3098,N,08608.8486,E,151.98,275.44,300413,,,A*68
$GPVTG,275.44,T,,M,151.98,N,281.5,K,A*07
$GPGGA,032540.000,2735.3301,N,08608.6093,E,1,03,3.6,3809.7,M,-37.8,M,,0000*46
$GPGSA,A,2,14,22,11,,,,,,,,,,3.8,3.6,1.0*39
$GPGSV,3,1,12,22,67,076,35,31,55,205,16,14,55,002,34,18,38,109,28*7C
$GPGSV,3,2,12,25,25,093,,11,17,299,25,12,13,061,,01,09,319,25*70
$GPGSV,3,3,12,21,07,162,,32,05,309,25,19,04,256,26,41,57,186,23*72
$GPRMC,032540.000,A,2735.3301,N,08608.6093,E,152.76,276.32,300413,,,A*66
$GPVTG,276.32,T,,M,152.76,N,282.9,K,A*09
$GPGGA,032545.000,2735.3561,N,08608.3727,E,1,04,1.7,3805.6,M,-37.8,M,,0000*47
$GPGSA,A,3,14,22,11,31,,,,,,,,,2.0,1.7,1.0*30
$GPGSV,3,1,12,22,67,078,36,31,56,206,15,14,54,003,34,18,37,110,28*75
$GPGSV,3,2,12,25,25,092,,11,18,298,26,12,12,060,,01,10,319,25*74
$GPGSV,3,3,12,21,06,162,,32,06,309,24,19,04,255,27,41,57,186,24*74
$GPRMC,032545.000,A,2735.3561,N,08608.3727,E,152.92,276.12,300413,,,A*66
$GPVTG,276.12,T,,M,152.92,N,283.2,K,A*0B
$GPGGA,032550.000,2735.3787,N,08608.1363,E,1,03,3.6,3801.2,M,-37.8,M,,0000*4B
$GPGSA,A,2,14,22,11,,,,,,,,,,3.7,3.6,1.0*36
$GPGSV,3,1,11,22,67,078,35,31,56,206,15,14,54,003,34,18,37,110,27*7A
$GPGSV,3,2,11,25,25,092,,11,18,298,26,12,12,060,18,01,10,319,24*7F
$GPGSV,3,3,11,21,06,162,,32,06,309,17,19,04,255,14*49
$GPRMC,032550.000,A,2735.3787,N,08608.1363,E,152.84,275.59,300413,,,A*65
$GPVTG,275.59,T,,M,152.84,N,283.0,K,A*02
$GPGGA,032555.000,2735.3993,N,08607.9020,E,1,04,3.2,3786.9,M,-37.8,M,,0000*4E
$GPGSA,A,3,14,22,11,12,,,,,,,,,3.7,3.2,1.9*39
$GPGSV,3,1,11,22,67,078,35,31,56,206,16,14,54,003,35,18,37,110,28*77
$GPGSV,3,2,11,25,25,092,,11,18,298,26,12,12,060,17,01,10,319,24*70
$GPGSV,3,3,11,21,06,162,,32,06,309,25,19,04,255,27*48
$GPVTG,275.46,T,,M,153.03,N,283.4,K,A*06
$GPGGA,032600.000,2735.4236,N,08607.6651,E,1,03,3.6,3782.2,M,-37.8,M,,0000*4D
$GPGSA,A,2,14,22,11,,,,,,,,,,3.7,3.6,1.0*36
$GPGSV,3,1,11,22,67,078,35,31,56,206,18,14,54,003,34,18,37,110,28*78
$GPGSV,3,2,11,25,25,092,,11,18,298,26,12,12,060,,01,10,319,24*76
$GPGSV,3,3,11,21,06,162,,32,06,309,25,19,04,255,28*47
$GPRMC,032600.000,A,2735.4236,N,08607.6651,E,153.18,276.25,300413,,,A*6B
$GPVTG,276.25,T,,M,153.18,N,283.7,K,A*09
$GPGGA,032605.000,2735.4457,N,08607.4269,E,1,05,1.5,3772.9,M,-37.8,M,,0000*47
$GPGSA,A,3,14,22,11,12,31,,,,,,,,2.4,1.5,1.8*3D
$GPGSV,3,1,12,22,67,078,35,31,56,206,18,14,54,003,34,18,37,110,28*7B
$GPGSV,3,2,12,25,25,092,14,11,18,298,23,12,12,060,17,01,10,319,25*72
$GPGSV,3,3,12,21,06,162,,32,06,309,25,19,04,255,27,41,57,186,28*79
$GPRMC,032605.000,A,2735.4457,N,08607.4269,E,152.88,276.29,300413,,,A*66
$GPVTG,276.29,T,,M,152.88,N,283.1,K,A*0B
$GPGGA,032610.000,2735.4697,N,08607.1891,E,1,04,3.2,3762.6,M,-37.8,M,,0000*4F
$GPGSA,A,3,14,22,11,12,,,,,,,,,3.7,3.2,1.9*39
$GPGSV,3,1,11,22,67,078,34,31,56,206,17,14,54,003,34,18,37,110,27*79
$GPGSV,3,2,11,25,25,092,15,11,18,298,20,12,12,060,16,01,10,319,26*71
$GPGSV,3,3,11,21,06,162,,32,06,309,24,19,04,255,20*4E
$GPRMC,032610.000,A,2735.4697,N,08607.1891,E,154.70,276.74,300413,,,A*6D
$GPVTG,276.74,T,,M,154.70,N,286.5,K,A*03
$GPGGA,032615.000,2735.4925,N,08606.9507,E,1,05,2.3,3742.9,M,-37.8,M,,0000*4B
$GPGSA,A,3,14,22,25,11,12,,,,,,,,2.8,2.3,1.6*3F
$GPGSV,3,1,11,22,67,078,34,31,56,206,16,14,54,003,34,18,37,110,28*77
$GPGSV,3,2,11,25,25,092,14,11,18,298,22,12,12,060,16,01,10,319,27*73
$GPGSV,3,3,11,21,06,162,,32,06,309,24,19,04,255,27*49
$GPRMC,032615.000,A,2735.4925,N,08606.9507,E,154.98,276.02,300413,,,A*62
$GPVTG,276.02,T,,M,154.98,N,287.0,K,A*00
$GPGGA,032620.000,2735.5136,N,08606.7112,E,1,06,1.4,3723.8,M,-37.8,M,,0000*49
$GPGSA,A,3,14,22,25,11,12,31,,,,,,,2.1,1.4,1.6*30
$GPGSV,3,1,11,22,67,078,34,31,56,206,15,14,54,003,34,18,37,110,28*74
$GPGSV,3,2,11,25,25,092,15,11,18,298,23,12,12,060,17,01,10,319,27*72
$GPGSV,3,3,11,21,06,162,,32,06,309,25,19,04,255,27*48
$GPRMC,032620.000,A,2735.5136,N,08606.7112,E,154.93,276.40,300413,,,A*6C
$GPVTG,276.40,T,,M,154.93,N,286.9,K,A*05
$GPGGA,032625.000,2735.5372,N,08606.4720,E,1,06,1.4,3709.0,M,-37.8,M,,0000*4A
$GPGSA,A,3,14,22,25,11,12,31,,,,,,,2.1,1.4,1.6*30
$GPGSV,3,1,11,22,67,078,34,31,56,206,24,14,54,003,34,18,37,110,28*76
$GPGSV,3,2,11,25,25,092,16,11,18,298,18,12,12,060,17,01,10,319,26*78
$GPGSV,3,3,11,21,06,162,,32,06,309,26,19,04,255,18*47
$GPVTG,276.18,T,,M,153.95,N,285.1,K,A*02
$GPGGA,032630.000,2735.5608,N,08606.2308,E,1,04,3.2,3695.9,M,-37.8,M,,0000*45
$GPGSA,A,3,14,22,11,12,,,,,,,,,3.7,3.2,1.9*39
$GPGSV,3,1,11,22,67,078,33,31,56,206,07,14,54,003,35,18,37,110,26*7F
$GPGSV,3,2,11,25,25,092,15,11,18,298,20,12,12,060,18,01,10,319,18*72
$GPGSV,3,3,11,21,06,162,22,32,06,309,23,19,04,255,17*4D
$GPRMC,032630.000,A,2735.5608,N,08606.2308,E,154.55,275.80,300413,,,A*6E
$GPVTG,275.80,T,,M,154.55,N,286.2,K,A*0B
$GPGGA,032635.000,2735.5844,N,08605.9917,E,1,06,1.8,3681.8,M,-37.8,M,,0000*44
$GPGSA,A,3,14,22,25,11,12,18,,,,,,,2.4,1.8,1.6*32
$GPGSV,3,1,11,22,67,079,33,31,56,206,,14,54,004,34,18,37,110,26*7F
$GPGSV,3,2,11,25,25,092,24,11,18,298,16,12,12,060,22,01,10,319,19*7D
$GPGSV,3,3,11,32,06,309,14,21,06,162,18,19,04,255,28*4C
$GPRMC,032635.000,A,2735.5844,N,08605.9917,E,154.19,276.39,300413,,,A*68
$GPVTG,276.39,T,,M,154.19,N,285.6,K,A*05
$GPGGA,032640.000,2735.6073,N,08605.7486,E,1,07,1.3,3661.0,M,-37.8,M,,0000*4E
$GPGSA,A,3,14,22,25,11,12,31,18,,,,,,2.1,1.3,1.6*3E
$GPGSV,3,1,11,22,67,079,33,31,56,206,23,14,54,004,35,18,37,110,26*7F
$GPGSV,3,2,11,25,25,092,23,11,18,298,20,12,12,060,24,01,10,319,25*76
$GPGSV,3,3,11,32,06,309,15,21,06,162,19,19,04,255,26*42
$GPRMC,032640.000,A,2735.6073,N,08605.7486,E,157.21,277.00,300413,,,A*6D
$GPVTG,277.00,T,,M,157.21,N,291.1,K,A*04
$GPGGA,032645.000,2735.6327,N,08605.4995,E,1,07,1.3,3633.7,M,-37.8,M,,0000*45
$GPGSA,A,3,14,22,25,11,12,31,18,,,,,,2.1,1.3,1.6*3E
$GPGSV,3,1,11,22,67,079,33,31,56,206,24,14,54,004,35,18,37,110,26*78
$GPGSV,3,2,11,25,25,092,23,11,18,298,17,12,12,060,23,01,10,319,24*74
$GPGSV,3,3,11,32,06,309,16,21,06,162,19,19,04,255,22*45
$GPRMC,032645.000,A,2735.6327,N,08605.4995,E,161.74,276.57,300413,,,A*60
$GPVTG,276.57,T,,M,161.74,N,299.5,K,A*0E
$GPGGA,032650.000,2735.6567,N,08605.2418,E,1,07,1.3,3599.7,M,-37.8,M,,0000*4E
$GPGSA,A,3,14,22,25,11,12,31,18,,,,,,2.1,1.3,1.6*3E
$GPGSV,3,1,11,22,67,079,34,31,56,206,23,14,54,004,35,18,37,110,25*7B
$GPGSV,3,2,11,25,25,092,24,11,18,298,16,12,12,060,25,01,10,319,25*75
$GPGSV,3,3,11,32,06,309,16,21,06,162,19,19,04,255,23*44
$GPRMC,032650.000,A,2735.6567,N,08605.2418,E,166.04,276.23,300413,,,A*6B
$GPVTG,276.23,T,,M,166.04,N,307.5,K,A*0B
$GPGGA,032655.000,2735.6798,N,08604.9790,E,1,07,1.3,3570.2,M,-37.8,M,,0000*42
$GPGSA,A,3,14,22,25,11,12,31,18,,,,,,2.1,1.3,1.6*3E
$GPGSV,3,1,11,22,67,079,33,31,56,206,23,14,54,004,36,18,37,110,25*7F
$GPGSV,3,2,11,25,25,092,24,11,18,298,16,12,12,060,24,01,10,319,21*70
$GPGSV,3,3,11,32,06,309,16,21,06,162,20,19,04,255,19*47
$GPRMC,032655.000,A,2735.6798,N,08604.9790,E,168.64,276.12,300413,,,A*6F
$GPVTG,276.12,T,,M,168.64,N,312.3,K,A*03
$GPGGA,032700.000,2735.7072,N,08604.7199,E,1,07,1.3,3545.9,M,-37.8,M,,0000*4D
$GPGSA,A,3,14,22,25,11,12,31,18,,,,,,2.1,1.3,1.6*3E
$GPGSV,3,1,11,22,67,079,33,31,56,206,23,14,54,004,35,18,37,110,25*7C
$GPGSV,3,2,11,25,25,092,18,11,18,298,15,12,12,060,16,01,10,319,19*76
$GPGSV,3,3,11,32,06,309,16,21,06,162,19,19,04,255,20*47
$GPVTG,276.68,T,,M,167.53,N,310.3,K,A*07
$GPGGA,032705.000,2735.7350,N,08604.4579,E,1,05,2.1,3518.9,M,-37.8,M,,0000*49
$GPGSA,A,3,14,22,25,31,18,,,,,,,,4.6,2.1,4.1*3F
$GPGSV,3,1,11,22,67,079,33,31,56,206,22,14,54,004,35,18,37,110,26*7E
$GPGSV,3,2,11,25,25,092,17,11,18,298,,12,12,060,,01,10,319,18*7B
$GPGSV,3,3,11,32,06,309,16,21,06,162,19,19,04,255,21*46
$GPRMC,032705.000,A,2735.7350,N,08604.4579,E,167.96,276.89,300413,,,A*62
$GPVTG,276.89,T,,M,167.96,N,311.0,K,A*03
$GPGGA,032710.000,2735.7634,N,08604.1974,E,1,07,1.3,3496.2,M,-37.8,M,,0000*41
$GPGSA,A,3,14,22,25,12,11,31,18,,,,,,2.1,1.3,1.6*3E
$GPGSV,3,1,11,22,67,079,33,31,56,206,25,14,54,004,35,18,37,110,27*78
$GPGSV,3,2,11,25,25,092,17,11,18,298,18,12,12,060,19,01,10,319,20*71
$GPGSV,3,3,11,32,06,309,17,21,06,162,18,19,04,255,21*46
$GPRMC,032710.000,A,2735.7634,N,08604.1974,E,167.92,276.80,300413,,,A*68
$GPVTG,276.80,T,,M,167.92,N,311.0,K,A*0E
$GPGGA,032715.000,2735.7921,N,08603.9367,E,1,07,1.3,3470.8,M,-37.8,M,,0000*4A
$GPGSA,A,3,14,22,25,12,11,31,18,,,,,,2.1,1.3,1.6*3E
$GPGSV,3,1,11,22,67,079,34,31,56,206,25,14,54,004,35,18,37,110,27*7F
$GPGSV,3,2,11,25,25,092,19,11,18,298,18,12,12,060,20,01,10,319,24*71
$GPGSV,3,3,11,32,06,309,25,21,06,162,23,19,04,255,23*4D
$GPRMC,032715.000,A,2735.7921,N,08603.9367,E,168.29,276.90,300413,,,A*6F
$GPVTG,276.90,T,,M,168.29,N,311.7,K,A*07
$GPGGA,032720.000,2735.8161,N,08603.6755,E,1,07,1.3,3445.6,M,-37.8,M,,0000*4D
$GPGSA,A,3,14,22,25,12,11,31,18,,,,,,2.1,1.3,1.6*3E
$GPGSV,3,1,11,22,67,079,35,31,56,206,25,14,54,004,35,18,37,110,21*78
$GPGSV,3,2,11,25,25,092,19,11,18,298,19,12,12,060,21,01,10,319,19*7F
$GPGSV,3,3,11,32,06,309,18,21,06,162,23,19,04,255,23*43
$GPRMC,032720.000,A,2735.8161,N,08603.6755,E,168.91,274.49,300413,,,A*65
$GPVTG,274.49,T,,M,168.91,N,312.8,K,A*0E
$GPGGA,032725.000,2735.8289,N,08603.4115,E,1,07,1.3,3422.1,M,-37.8,M,,0000*4B
$GPGSA,A,3,14,22,25,12,11,31,18,,,,,,2.1,1.3,1.6*3E
$GPGSV,3,1,11,22,67,079,35,31,56,206,26,14,54,004,36,18,37,110,26*7F
$GPGSV,3,2,11,25,25,092,20,11,18,298,19,12,12,060,23,01,10,319,20*7D
$GPGSV,3,3,11,32,06,309,19,21,06,162,24,19,04,255,14*41
$GPRMC,032725.000,A,2735.8289,N,08603.4115,E,168.77,272.78,300413,,,A*69
$GPVTG,272.78,T,,M,168.77,N,312.6,K,A*0C
$GPGGA,032730.000,2735.8402,N,08603.1470,E,1,07,1.3,3397.4,M,-37.8,M,,0000*45
$GPGSA,A,3,14,22,25,12,11,31,18,,,,,,2.1,1.3,1.6*3E
$GPGSV,3,1,11,22,67,079,35,31,56,206,24,14,54,004,36,18,37,110,25*7E
$GPGSV,3,2,11,25,25,092,21,11,18,298,19,12,12,060,23,01,10,319,21*7D
$GPGSV,3,3,11,32,06,309,19,21,06,162,25,19,04,255,20*47
$GPVTG,272.67,T,,M,169.70,N,314.3,K,A*07
$GPGGA,032735.000,2735.8501,N,08602.8806,E,1,07,1.3,3372.6,M,-37.8,M,,0000*4E
$GPGSA,A,3,14,22,25,12,11,31,18,,,,,,2.1,1.3,1.6*3E
$GPGSV,3,1,11,22,67,079,35,31,56,206,15,14,54,004,36,18,37,110,26*7F
$GPGSV,3,2,11,25,25,092,20,11,18,298,19,12,12,060,23,01,10,319,21*7C
$GPGSV,3,3,11,32,06,309,18,21,06,162,25,19,04,255,21*47
$GPRMC,032735.000,A,2735.8501,N,08602.8806,E,171.39,272.38,300413,,,A*6F
$GPVTG,272.38,T,,M,171.39,N,317.4,K,A*0D
$GPGGA,032740.000,2735.8580,N,08602.6116,E,1,07,1.3,3349.0,M,-37.8,M,,0000*4D
$GPGSA,A,3,14,22,25,12,11,31,18,,,,,,2.1,1.3,1.6*3E
$GPGSV,3,1,11,22,67,079,35,31,56,206,24,14,54,004,36,18,37,110,25*7E
$GPGSV,3,2,11,25,25,092,21,11,18,298,19,12,12,060,24,01,10,319,22*79
$GPGSV,3,3,11,32,06,309,17,21,06,162,26,19,04,255,21*4B
$GPRMC,032740.000,A,2735.8580,N,08602.6116,E,171.34,271.96,300413,,,A*68
$GPVTG,271.96,T,,M,171.34,N,317.3,K,A*00
$GPGGA,032745.000,2735.8673,N,08602.3461,E,1,06,1.4,3329.6,M,-37.8,M,,0000*41
$GPGSA,A,3,14,22,25,11,31,18,,,,,,,2.3,1.4,1.9*37
$GPGSV,3,1,11,22,67,079,35,31,56,206,24,14,54,004,35,18,37,110,25*7D
$GPGSV,3,2,11,25,25,092,21,11,18,298,13,12,12,060,11,01,10,319,*75
$GPGSV,3,3,11,32,06,309,22,21,06,162,25,19,04,255,21*4E
$GPRMC,032745.000,A,2735.8673,N,08602.3461,E,168.41,272.42,300413,,,A*62
$GPVTG,272.42,T,,M,168.41,N,311.9,K,A*0C
$GPGGA,032750.000,2735.8745,N,08602.0826,E,1,06,1.4,3322.2,M,-37.8,M,,0000*42
$GPGSA,A,3,14,22,25,11,31,18,,,,,,,2.3,1.4,1.9*37
$GPGSV,3,1,11,22,67,079,35,31,56,206,24,14,54,004,35,18,37,110,24*7C
$GPGSV,3,2,11,25,25,092,23,11,18,298,17,12,12,060,,01,10,319,23*72
$GPGSV,3,3,11,32,06,309,23,21,06,162,25,19,04,255,24*4A
$GPRMC,032750.000,A,2735.8745,N,08602.0826,E,166.45,271.38,300413,,,A*6A
$GPVTG,271.38,T,,M,166.45,N,308.3,K,A*0A
$GPGGA,032755.000,2735.8776,N,08601.8270,E,1,05,2.4,3323.1,M,-37.8,M,,0000*47
$GPGSA,A,3,14,22,25,12,18,,,,,,,,2.6,2.4,1.0*39
$GPGSV,3,1,11,22,67,079,35,31,56,206,18,14,54,004,35,18,37,110,21*76
$GPGSV,3,2,11,25,25,092,23,11,18,298,18,12,12,060,18,01,10,319,23*74
$GPGSV,3,3,11,32,06,309,25,21,06,162,25,19,04,255,24*4C
$GPRMC,032755.000,A,2735.8776,N,08601.8270,E,161.92,270.69,300413,,,A*65
$GPVTG,270.69,T,,M,161.92,N,299.9,K,A*01
$GPGGA,032800.000,2735.8804,N,08601.5789,E,1,07,1.3,3328.5,M,-37.8,M,,0000*45
$GPGSA,A,3,14,22,25,12,11,31,18,,,,,,2.1,1.3,1.6*3E
$GPGSV,3,1,11,22,67,079,35,31,56,206,20,14,54,004,35,18,37,110,21*7D
$GPGSV,3,2,11,25,25,092,17,11,18,298,17,12,12,060,15,01,10,319,22*70
$GPRMC,032800.000,A,2735.8804,N,08601.5789,E,159.36,270.00,300413,,,A*64
$GPVTG,270.00,T,,M,159.36,N,295.1,K,A*0F
$GPGGA,032805.000,2735.8765,N,08601.3328,E,1,07,1.3,3334.4,M,-37.7,M,,0000*42
$GPGSA,A,3,14,22,25,12,11,31,18,,,,,,2.1,1.3,1.6*3E
$GPGSV,3,1,11,22,67,079,35,31,56,206,26,14,54,004,35,18,37,110,13*7A
$GPGSV,3,2,11,25,25,092,18,11,18,298,18,12,12,060,14,01,10,319,22*71
$GPGSV,3,3,11,32,06,309,25,21,06,162,25,19,04,255,23*4B
$GPRMC,032805.000,A,2735.8765,N,08601.3328,E,157.14,268.47,300413,,,A*64
$GPGGA,032810.000,2735.8697,N,08601.0906,E,1,07,1.3,3344.1,M,-37.7,M,,0000*4D
$GPGSA,A,3,14,22,25,12,11,31,18,,,,,,2.1,1.3,1.6*3E
$GPGSV,3,1,11,22,67,079,34,31,56,206,26,14,54,004,35,18,37,110,26*7D
$GPGSV,3,2,11,25,25,092,26,11,18,298,24,12,12,060,15,01,10,319,22*72
$GPGSV,3,3,11,32,06,309,24,21,06,162,25,19,04,255,22*4B
$GPRMC,032810.000,A,2735.8697,N,08601.0906,E,155.03,268.28,300413,,,A*64
$GPVTG,268.28,T,,M,155.03,N,287.1,K,A*05
$GPGGA,032815.000,2735.8642,N,08600.8524,E,1,06,1.4,3352.9,M,-37.7,M,,0000*4C
$GPGSA,A,3,14,22,25,11,31,18,,,,,,,2.3,1.4,1.9*37
$GPGSV,3,1,11,22,67,079,33,31,56,206,26,14,54,004,35,18,37,110,16*79
$GPGSV,3,2,11,25,25,092,18,11,18,298,22,12,12,060,,01,10,319,22*7D
$GPGSV,3,3,11,32,06,309,24,21,06,162,25,19,04,255,11*4B
$GPRMC,032815.000,A,2735.8642,N,08600.8524,E,153.27,268.54,300413,,,A*67
$GPVTG,268.54,T,,M,153.27,N,283.8,K,A*03
$GPGGA,032820.000,2735.8572,N,08600.6153,E,1,07,1.3,3353.6,M,-37.7,M,,0000*48
$GPGSA,A,3,14,22,25,12,11,31,18,,,,,,2.1,1.3,1.6*3E
$GPGSV,3,1,11,22,67,079,33,31,56,206,25,14,54,004,36,18,37,110,24*78
$GPGSV,3,2,11,25,25,092,23,11,18,298,22,12,12,060,20,01,10,319,22*77
$GPGSV,3,3,11,32,06,309,24,21,06,162,24,19,04,255,*4A
$GPRMC,032820.000,A,2735.8572,N,08600.6153,E,151.67,268.35,300413,,,A*6A
$GPVTG,268.35,T,,M,151.67,N,280.9,K,A*00
$GPGGA,032825.000,2735.8524,N,08600.3773,E,1,06,1.4,3352.7,M,-37.7,M,,0000*49
$GPGSA,A,3,14,22,25,11,31,18,,,,,,,2.3,1.4,1.9*37
$GPGSV,3,1,11,22,67,079,31,31,56,206,18,14,54,004,36,18,37,110,18*7B
$GPGSV,3,2,11,25,25,092,17,11,18,298,22,12,12,060,,01,10,319,20*70
$GPGSV,3,3,11,32,06,309,25,21,06,162,24,19,04,255,*4B
$GPRMC,032825.000,A,2735.8524,N,08600.3773,E,152.21,268.88,300413,,,A*6A
$GPVTG,268.88,T,,M,152.21,N,281.9,K,A*06
$GPGGA,032830.000,2735.8482,N,08600.1426,E,1,06,1.4,3350.2,M,-37.7,M,,0000*46
$GPGSA,A,3,14,22,25,11,31,18,,,,,,,2.3,1.4,1.9*37
$GPGSV,3,1,11,22,67,079,31,31,56,206,28,14,54,004,37,18,37,110,26*74
$GPGSV,3,2,11,25,25,092,19,11,18,298,18,12,12,060,,01,10,319,20*77
$GPGSV,3,3,11,32,06,309,17,21,06,162,24,19,04,255,24*4C
$GPVTG,269.51,T,,M,150.83,N,279.3,K,A*04
$GPGGA,032835.000,2735.8445,N,08559.9060,E,1,06,1.4,3347.4,M,-37.7,M,,0000*49
$GPGSA,A,3,14,22,25,11,31,18,,,,,,,2.3,1.4,1.9*37
$GPGSV,3,1,11,22,67,079,32,31,56,206,28,14,54,004,37,18,37,110,21*70
$GPGSV,3,2,11,25,25,092,21,11,18,298,14,12,12,060,,01,10,319,17*74
$GPGSV,3,3,11,32,06,309,16,21,06,162,24,19,04,255,25*4C
$GPRMC,032835.000,A,2735.8445,N,08559.9060,E,150.71,268.98,300413,,,A*6B
$GPVTG,268.98,T,,M,150.71,N,279.1,K,A*0F
$GPGGA,032840.000,2735.8415,N,08559.6733,E,1,06,1.9,3344.5,M,-37.7,M,,0000*4F
$GPGSA,A,3,14,22,25,12,31,18,,,,,,,3.3,1.9,2.7*35
$GPGSV,3,1,11,22,67,079,31,31,56,206,28,14,54,004,37,18,37,110,20*72
$GPGSV,3,2,11,25,25,092,22,11,18,298,,12,12,060,22,01,10,319,18*7D
$GPGSV,3,3,11,32,06,309,25,21,06,162,24,19,04,255,25*4C
$GPRMC,032840.000,A,2735.8415,N,08559.6733,E,148.18,269.20,300413,,,A*66
$GPVTG,269.20,T,,M,148.18,N,274.4,K,A*03
$GPGGA,032845.000,2735.8397,N,08559.4420,E,1,06,1.9,3341.8,M,-37.7,M,,0000*4C
$GPGSA,A,3,14,22,25,12,31,18,,,,,,,3.3,1.9,2.7*35
$GPGSV,3,1,11,22,67,079,31,31,56,206,29,14,54,004,38,18,37,110,20*7C
$GPGSV,3,2,11,25,25,092,22,11,18,298,,12,12,060,22,01,10,319,22*74
$GPGSV,3,3,11,32,06,309,26,21,06,162,23,19,04,255,24*49
$GPRMC,032845.000,A,2735.8397,N,08559.4420,E,147.57,269.59,300413,,,A*67
$GPVTG,269.59,T,,M,147.57,N,273.3,K,A*09
$GPGGA,032850.000,2735.8389,N,08559.2139,E,1,07,1.3,3342.6,M,-37.7,M,,0000*4A
$GPGSA,A,3,14,22,25,12,11,31,18,,,,,,2.1,1.3,1.7*3F
$GPGSV,3,1,11,22,67,079,33,31,56,206,29,14,54,004,38,18,37,110,24*7A
$GPGSV,3,2,11,25,25,092,26,11,18,298,19,12,12,060,23,01,10,319,22*79
$GPGSV,3,3,11,32,06,309,25,21,06,162,23,19,04,255,24*4A
$GPRMC,032850.000,A,2735.8389,N,08559.2139,E,145.71,269.86,300413,,,A*63
$GPVTG,269.86,T,,M,145.71,N,269.9,K,A*0C
$GPGGA,032855.000,2735.8413,N,08558.9884,E,1,07,1.3,3345.9,M,-37.7,M,,0000*46
$GPGSA,A,3,14,22,25,12,11,31,18,,,,,,2.1,1.3,1.7*3F
$GPGSV,3,1,11,22,67,079,34,31,56,206,18,14,54,004,38,18,37,110,16*7E
$GPGSV,3,2,11,25,25,092,26,11,18,298,20,12,12,060,23,01,10,319,20*71
$GPGSV,3,3,11,32,06,309,25,21,06,162,23,19,04,255,23*4D
$GPRMC,032855.000,A,2735.8413,N,08558.9884,E,145.62,271.24,300413,,,A*64
$GPVTG,271.24,T,,M,145.62,N,269.7,K,A*01
$GPGGA,032900.000,2735.8473,N,08558.7618,E,1,07,1.3,3341.6,M,-37.7,M,,0000*4F
$GPGSA,A,3,14,22,25,12,11,31,18,,,,,,2.1,1.3,1.7*3F
$GPGSV,3,1,11,22,67,079,33,31,56,206,27,14,54,004,38,18,37,110,23*73
$GPGSV,3,2,11,25,25,092,17,11,18,298,12,12,12,060,23,01,10,319,15*74
$GPGSV,3,3,11,32,06,309,25,21,06,162,23,19,04,255,20*4E
$GPRMC,032900.000,A,2735.8473,N,08558.7618,E,145.61,271.81,300413,,,A*6A
$GPVTG,271.81,T,,M,145.61,N,269.7,K,A*0D
$GPGGA,032905.000,2735.8553,N,08558.5324,E,1,07,1.3,3332.0,M,-37.7,M,,0000*43
$GPGSA,A,3,14,22,25,12,11,31,18,,,,,,2.1,1.3,1.7*3F
$GPGSV,3,1,11,22,67,079,32,31,56,206,23,14,54,004,38,18,37,110,26*73
$GPGSV,3,2,11,25,25,092,19,11,18,298,13,12,12,060,24,01,10,319,24*7E
$GPGSV,3,3,11,32,06,309,27,21,06,162,23,19,04,255,*4E
$GPVTG,272.48,T,,M,147.08,N,272.4,K,A*0F
$GPGGA,032910.000,2735.8665,N,08558.3003,E,1,06,1.9,3317.4,M,-37.7,M,,0000*49
$GPGSA,A,3,14,22,25,12,31,18,,,,,,,3.3,1.9,2.7*35
$GPGSV,3,1,11,22,67,079,32,31,56,206,28,14,54,004,39,18,37,110,18*74
$GPGSV,3,2,11,25,25,092,26,11,18,298,,12,12,060,24,01,10,319,26*72
$GPGSV,3,3,11,32,06,309,29,21,06,162,22,19,04,255,*41
$GPRMC,032910.000,A,2735.8665,N,08558.3003,E,150.23,273.21,300413,,,A*6C
$GPVTG,273.21,T,,M,150.23,N,278.2,K,A*02
$GPGGA,032915.000,2735.8775,N,08558.0625,E,1,06,1.9,3302.4,M,-37.7,M,,0000*49
$GPGSA,A,3,14,22,25,12,31,18,,,,,,,3.3,1.9,2.7*35
$GPGSV,3,1,11,22,67,079,32,31,56,206,12,14,54,004,38,18,37,110,16*72
$GPGSV,3,2,11,25,25,092,25,11,18,298,,12,12,060,18,01,10,319,26*7E
$GPGSV,3,3,11,32,06,309,28,21,06,162,23,19,04,255,*41
$GPRMC,032915.000,A,2735.8775,N,08558.0625,E,152.30,273.46,300413,,,A*69
$GPVTG,273.46,T,,M,152.30,N,282.1,K,A*05
$GPGGA,032920.000,2735.8916,N,08557.8248,E,1,07,1.3,3286.6,M,-37.7,M,,0000*48
$GPGSA,A,3,14,22,11,25,12,31,18,,,,,,2.1,1.3,1.7*3F
$GPGSV,3,1,11,22,67,079,32,31,56,206,28,14,54,004,38,18,37,110,15*78
$GPGSV,3,2,11,25,25,092,24,11,18,298,16,12,12,060,18,01,10,319,27*79
$GPGSV,3,3,11,32,06,309,24,21,06,162,22,19,04,255,*4C
$GPRMC,032920.000,A,2735.8916,N,08557.8248,E,152.75,273.82,300413,,,A*65
$GPVTG,273.82,T,,M,152.75,N,282.9,K,A*04
$GPGGA,032925.000,2735.9064,N,08557.5863,E,1,07,1.3,3270.7,M,-37.7,M,,0000*46
$GPGSA,A,3,14,22,11,25,12,31,18,,,,,,2.1,1.3,1.7*3F
$GPGSV,3,1,11,22,67,079,33,31,56,206,30,14,54,004,38,18,37,110,16*73
$GPGSV,3,2,11,25,25,092,19,11,18,298,17,12,12,060,19,01,10,319,26*76
$GPGSV,3,3,11,32,06,309,25,21,06,162,23,19,04,255,18*45
$GPRMC,032925.000,A,2735.9064,N,08557.5863,E,153.35,273.84,300413,,,A*60
$GPVTG,273.84,T,,M,153.35,N,284.0,K,A*08
$GPGGA,032930.000,2735.9209,N,08557.3463,E,1,07,1.3,3256.8,M,-37.7,M,,0000*4A
$GPGSA,A,3,14,22,11,25,12,31,18,,,,,,2.1,1.3,1.7*3F
$GPGSV,3,1,11,22,67,079,34,31,56,206,22,14,54,004,38,18,37,110,21*73
$GPGSV,3,2,11,25,25,092,20,11,18,298,17,12,12,060,20,01,10,319,27*77
$GPGSV,3,3,11,32,06,309,25,21,06,162,23,19,04,255,18*45
$GPRMC,032930.000,A,2735.9209,N,08557.3463,E,155.27,273.71,300413,,,A*68
$GPVTG,273.71,T,,M,155.27,N,287.5,K,A*01
$GPGGA,032935.000,2735.9335,N,08557.1051,E,1,07,1.3,3249.5,M,-37.7,M,,0000*45
$GPGSA,A,3,14,22,11,25,12,31,18,,,,,,2.1,1.3,1.7*3F
$GPGSV,3,1,11,22,66,082,34,31,58,207,20,14,54,006,38,18,36,112,21*7A
$GPGSV,3,2,11,25,25,090,21,11,18,296,17,12,12,058,22,01,11,318,27*73
$GPGSV,3,3,11,32,07,310,25,21,05,161,24,19,03,253,19*4B
$GPVTG,273.02,T,,M,155.45,N,287.9,K,A*0D
$GPGGA,032940.000,2735.9442,N,08556.8629,E,1,06,1.4,3240.9,M,-37.7,M,,0000*42
$GPGSA,A,3,14,22,11,25,12,31,,,,,,,2.2,1.4,1.7*32
$GPGSV,3,1,11,22,66,082,34,31,58,207,23,14,54,006,38,18,36,112,*7A
$GPGSV,3,2,11,25,25,090,21,11,18,296,16,12,12,058,22,01,11,318,16*70
$GPGSV,3,3,11,32,07,310,25,21,05,161,25,19,03,253,18*4B
$GPRMC,032940.000,A,2735.9442,N,08556.8629,E,156.39,272.40,300413,,,A*6F
$GPVTG,272.40,T,,M,156.39,N,289.6,K,A*03
$GPGGA,032945.000,2735.9524,N,08556.6182,E,1,06,1.9,3231.4,M,-37.7,M,,0000*48
$GPGSA,A,3,14,22,18,25,12,31,,,,,,,3.3,1.9,2.7*35
$GPGSV,3,1,11,22,66,082,34,31,58,207,26,14,54,006,38,18,36,112,25*78
$GPGSV,3,2,11,25,25,090,22,11,18,296,,12,12,058,18,01,11,318,15*7E
$GPGSV,3,3,11,32,07,310,26,21,05,161,25,19,03,253,17*47
$GPRMC,032945.000,A,2735.9524,N,08556.6182,E,155.86,272.45,300413,,,A*61
$GPVTG,272.45,T,,M,155.86,N,288.6,K,A*00
$GPGGA,032950.000,2735.9607,N,08556.3731,E,1,05,2.2,3225.3,M,-37.7,M,,0000*4C
$GPGSA,A,3,14,22,25,12,31,,,,,,,,3.5,2.2,2.8*3D
$GPGSV,3,1,11,22,66,082,34,31,58,207,20,14,54,006,38,18,36,112,*79
$GPGSV,3,2,11,25,25,090,22,11,18,296,,12,12,058,25,01,11,318,16*73
$GPGSV,3,3,11,32,07,310,25,21,05,161,26,19,03,253,16*46
$GPRMC,032950.000,A,2735.9607,N,08556.3731,E,156.32,271.87,300413,,,A*6D
$GPVTG,271.87,T,,M,156.32,N,289.5,K,A*03
$GPGGA,032955.000,2735.9676,N,08556.1265,E,1,06,1.9,3216.3,M,-37.7,M,,0000*42
$GPGSA,A,3,14,22,18,25,12,31,,,,,,,3.3,1.9,2.7*35
$GPGSV,3,1,11,22,66,082,33,31,58,207,21,14,54,006,39,18,36,112,18*77
$GPGSV,3,2,11,25,25,090,23,11,18,296,,12,12,058,24,01,11,318,24*72
$GPGSV,3,3,11,32,07,310,26,21,05,161,25,19,03,253,15*45
$GPRMC,032955.000,A,2735.9676,N,08556.1265,E,157.78,271.87,300413,,,A*67
$GPVTG,271.87,T,,M,157.78,N,292.2,K,A*01
$GPGGA,033000.000,2735.9763,N,08555.8825,E,1,06,1.9,3213.4,M,-37.7,M,,0000*49
$GPGSA,A,3,14,22,18,25,12,31,,,,,,,3.3,1.9,2.7*35
$GPGSV,3,1,11,22,66,082,32,31,58,207,27,14,54,006,38,18,36,112,19*70
$GPGSV,3,2,11,25,25,090,23,11,18,296,,12,12,058,16,01,11,318,23*74
$GPGSV,3,3,11,32,07,310,26,21,05,161,25,19,03,253,16*46
$GPRMC,033000.000,A,2735.9763,N,08555.8825,E,156.68,272.31,300413,,,A*60
$GPVTG,272.31,T,,M,156.68,N,290.2,K,A*0D
$GPGGA,033005.000,2735.9865,N,08555.6405,E,1,06,1.9,3211.1,M,-37.7,M,,0000*42
$GPGSA,A,3,14,22,18,25,12,31,,,,,,,3.3,1.9,2.7*35
$GPGSV,3,1,11,22,66,082,32,31,58,207,27,14,54,006,38,18,36,112,21*7B
$GPGSV,3,2,11,25,25,090,22,11,18,296,,12,12,058,17,01,11,318,21*76
$GPGSV,3,3,11,32,07,310,26,21,05,161,25,19,03,253,16*46
$GPVTG,272.70,T,,M,156.09,N,289.1,K,A*04
$GPGGA,033010.000,2735.9967,N,08555.3976,E,1,06,1.9,3213.8,M,-37.7,M,,0000*42
$GPGSA,A,3,14,22,18,25,12,31,,,,,,,3.3,1.9,2.7*35
$GPGSV,3,1,11,22,66,082,31,31,58,207,20,14,54,006,38,18,36,112,21*7F
$GPGSV,3,2,11,25,25,090,18,11,18,296,,12,12,058,17,01,11,318,23*7D
$GPGSV,3,3,11,32,07,310,27,21,05,161,25,19,03,253,21*43
$GPRMC,033010.000,A,2735.9967,N,08555.3976,E,155.04,272.34,300413,,,A*6B
$GPVTG,272.34,T,,M,155.04,N,287.1,K,A*04
$GPGGA,033015.000,2736.0050,N,08555.1561,E,1,06,1.9,3210.9,M,-37.7,M,,0000*4A
$GPGSA,A,3,14,22,18,25,12,31,,,,,,,3.3,1.9,2.7*35
$GPGSV,3,1,11,22,66,082,32,31,58,207,12,14,54,006,38,18,36,112,21*7D
$GPGSV,3,2,11,25,25,090,19,11,18,296,,12,12,058,23,01,11,318,24*7C
$GPGSV,3,3,11,32,07,310,26,21,05,161,25,19,03,253,21*42
$GPRMC,033015.000,A,2736.0050,N,08555.1561,E,154.86,272.03,300413,,,A*6E
$GPVTG,272.03,T,,M,154.86,N,286.8,K,A*03
$GPGGA,033020.000,2736.0092,N,08554.9113,E,1,06,1.9,3199.6,M,-37.7,M,,0000*47
$GPGSA,A,3,14,22,18,25,12,31,,,,,,,3.4,1.9,2.7*32
$GPGSV,3,1,11,22,66,082,32,31,58,207,14,14,54,006,38,18,36,112,14*7D
$GPGSV,3,2,11,25,25,090,20,11,18,296,,12,12,058,23,01,11,318,25*77
$GPGSV,3,3,11,32,07,310,26,21,05,161,25,19,03,253,20*43
$GPRMC,033020.000,A,2736.0092,N,08554.9113,E,154.53,271.64,300413,,,A*64
$GPVTG,271.64,T,,M,154.53,N,286.2,K,A*03
$GPGGA,033025.000,2736.0215,N,08554.6798,E,1,06,1.9,3195.5,M,-37.7,M,,0000*4A
$GPGSA,A,3,14,22,18,25,12,31,,,,,,,3.4,1.9,2.7*32
$GPGSV,3,1,11,22,66,082,33,31,58,207,26,14,54,006,38,18,36,112,14*7D
$GPGSV,3,2,11,25,25,090,21,11,18,296,,12,12,058,24,01,11,318,25*71
$GPGSV,3,3,11,32,07,310,27,21,05,161,25,19,03,253,19*48
$GPRMC,033025.000,A,2736.0215,N,08554.6798,E,150.12,273.29,300413,,,A*6C
$GPVTG,273.29,T,,M,150.12,N,278.0,K,A*0A
$GPGGA,033030.000,2736.0339,N,08554.4459,E,1,05,2.4,3197.3,M,-37.7,M,,0000*44
$GPGSA,A,3,14,22,18,25,12,,,,,,,,2.6,2.4,1.0*39
$GPGSV,3,1,11,22,66,082,32,31,58,207,17,14,54,006,38,18,36,112,23*7A
$GPGSV,3,2,11,25,25,090,22,11,18,296,,12,12,058,24,01,11,318,24*73
$GPGSV,3,3,11,32,07,310,27,21,05,161,24,19,03,253,19*49
$GPRMC,033030.000,A,2736.0339,N,08554.4459,E,151.77,272.56,300413,,,A*60
$GPVTG,272.56,T,,M,151.77,N,281.1,K,A*06
$GPGGA,033035.000,2736.0425,N,08554.2054,E,1,07,1.3,3193.4,M,-37.7,M,,0000*41
$GPGSA,A,3,14,22,18,25,12,31,11,,,,,,2.1,1.3,1.7*3F
$GPGSV,3,1,11,22,66,082,32,31,58,207,20,14,54,006,39,18,36,112,24*78
$GPGSV,3,2,11,25,25,090,23,11,18,296,18,12,12,058,25,01,11,318,25*7B
$GPGSV,3,3,11,32,07,310,26,21,05,161,24,19,03,253,19*48
$GPVTG,271.96,T,,M,153.70,N,284.6,K,A*0E
$GPGGA,033040.000,2736.0480,N,08553.9611,E,1,07,1.3,3180.8,M,-37.7,M,,0000*49
$GPGSA,A,3,14,22,18,25,12,31,11,,,,,,2.1,1.3,1.7*3F
$GPGSV,3,1,11,22,66,082,32,31,58,207,21,14,54,006,39,18,36,112,15*7B
$GPGSV,3,2,11,25,25,090,23,11,18,296,16,12,12,058,24,01,11,318,25*74
$GPGSV,3,3,11,32,07,310,27,21,05,161,24,19,03,253,19*49
$GPRMC,033040.000,A,2736.0480,N,08553.9611,E,155.58,271.73,300413,,,A*6B
$GPVTG,271.73,T,,M,155.58,N,288.1,K,A*02
$GPGGA,033045.000,2736.0521,N,08553.7191,E,1,07,1.3,3172.2,M,-37.7,M,,0000*40
$GPGSA,A,3,14,22,18,25,12,31,11,,,,,,2.1,1.3,1.7*3F
$GPGSV,3,1,11,22,66,082,32,31,58,207,24,14,54,006,39,18,36,112,18*73
$GPGSV,3,2,11,25,25,090,24,11,18,296,17,12,12,058,24,01,11,318,26*71
$GPGSV,3,3,11,32,07,310,27,21,05,161,24,19,03,253,19*49
$GPRMC,033045.000,A,2736.0521,N,08553.7191,E,154.22,271.27,300413,,,A*68
$GPVTG,271.27,T,,M,154.22,N,285.6,K,A*05
$GPGGA,033050.000,2736.0568,N,08553.4764,E,1,06,1.9,3164.2,M,-37.7,M,,0000*4A
$GPGSA,A,3,14,22,18,25,12,31,,,,,,,3.4,1.9,2.7*32
$GPGSV,3,1,11,22,66,082,32,31,58,207,20,14,54,006,39,18,36,112,25*79
$GPGSV,3,2,11,25,25,090,24,11,18,296,,12,12,058,24,01,11,318,26*77
$GPGSV,3,3,11,32,07,310,27,21,05,161,24,19,03,253,13*43
$GPRMC,033050.000,A,2736.0568,N,08553.4764,E,155.27,270.86,300413,,,A*60
$GPVTG,270.86,T,,M,155.27,N,287.6,K,A*09
$GPGGA,033055.000,2736.0599,N,08553.2339,E,1,07,1.3,3157.3,M,-37.7,M,,0000*41
$GPGSA,A,3,14,22,18,25,12,31,11,,,,,,2.1,1.3,1.7*3F
$GPGSV,3,1,11,22,66,082,33,31,58,207,24,14,54,006,38,18,36,112,25*7D
$GPGSV,3,2,11,25,25,090,24,11,18,296,17,12,12,058,24,01,11,318,21*76
$GPGSV,3,3,11,32,07,310,26,21,05,161,24,19,03,253,17*46
$GPRMC,033055.000,A,2736.0599,N,08553.2339,E,154.21,270.87,300413,,,A*67
$GPVTG,270.87,T,,M,154.21,N,285.6,K,A*0D
$GPGGA,033100.000,2736.0631,N,08552.9923,E,1,06,1.9,3149.0,M,-37.7,M,,0000*4D
$GPGSA,A,3,14,22,18,25,12,31,,,,,,,3.4,1.9,2.7*32
$GPGSV,3,1,11,22,66,082,32,31,58,207,20,14,54,006,38,18,36,112,26*7B
$GPGSV,3,2,11,25,25,090,25,11,18,296,,12,12,058,24,01,11,318,20*70
$GPGSV,3,3,11,32,07,310,27,21,05,161,23,19,03,253,15*42
$GPRMC,033100.000,A,2736.0631,N,08552.9923,E,154.11,271.02,300413,,,A*63
$GPVTG,271.02,T,,M,154.11,N,285.4,K,A*00
$GPGGA,033105.000,2736.0666,N,08552.7495,E,1,07,1.3,3139.7,M,-37.7,M,,0000*4F
$GPGSA,A,3,14,22,18,25,12,31,11,,,,,,2.1,1.3,1.7*3F
$GPGSV,3,1,11,22,66,082,33,31,58,207,27,14,54,006,38,18,36,112,26*7D
$GPGSV,3,2,11,25,25,090,25,11,18,296,22,12,12,058,24,01,11,318,21*71
$GPGSV,3,3,11,32,07,310,27,21,05,161,23,19,03,253,14*43
$GPRMC,033105.000,A,2736.0666,N,08552.7495,E,155.83,270.80,300413,,,A*6B
$GPVTG,270.80,T,,M,155.83,N,288.6,K,A*0E
$GPGGA,033110.000,2736.0677,N,08552.5051,E,1,07,1.3,3128.3,M,-37.7,M,,0000*41
$GPGSA,A,3,14,22,18,25,12,31,11,,,,,,2.1,1.3,1.7*3F
$GPGSV,3,1,11,22,66,082,33,31,58,207,28,14,54,006,38,18,36,112,26*72
$GPGSV,3,2,11,25,25,090,24,11,18,296,23,12,12,058,23,01,11,318,22*75
$GPGSV,3,3,11,32,07,310,27,21,05,161,22,19,03,253,*47
$GPVTG,270.01,T,,M,157.26,N,291.2,K,A*06
$GPGGA,033115.000,2736.0662,N,08552.2589,E,1,07,1.3,3116.6,M,-37.7,M,,0000*4F
$GPGSA,A,3,14,22,18,25,12,31,11,,,,,,2.1,1.3,1.7*3F
$GPGSV,3,1,11,22,66,082,33,31,58,207,28,14,54,006,39,18,36,112,25*70
$GPGSV,3,2,11,25,25,090,23,11,18,296,24,12,12,058,22,01,11,318,23*75
$GPGSV,3,3,11,32,07,310,27,21,05,161,22,19,03,253,*47
$GPRMC,033115.000,A,2736.0662,N,08552.2589,E,157.96,269.53,300413,,,A*67
$GPVTG,269.53,T,,M,157.96,N,292.5,K,A*06
$GPGGA,033120.000,2736.0641,N,08552.0118,E,1,07,1.3,3107.4,M,-37.7,M,,0000*44
$GPGSA,A,3,14,22,18,25,12,31,11,,,,,,2.1,1.3,1.7*3F
$GPGSV,3,1,11,22,66,082,33,31,58,207,27,14,54,006,39,18,36,112,24*7E
$GPGSV,3,2,11,25,25,090,20,11,18,296,24,12,12,058,22,01,11,318,23*76
$GPGSV,3,3,11,32,07,310,26,21,05,161,22,19,03,253,*46
$GPRMC,033120.000,A,2736.0641,N,08552.0118,E,158.17,269.50,300413,,,A*6B
$GPVTG,269.50,T,,M,158.17,N,292.9,K,A*0F
$GPGGA,033125.000,2736.0621,N,08551.7650,E,1,07,1.3,3098.6,M,-37.7,M,,0000*4D
$GPGSA,A,3,14,22,18,25,12,31,11,,,,,,2.1,1.3,1.7*3F
$GPGSV,3,1,11,22,66,082,33,31,58,207,23,14,54,006,39,18,36,112,24*7A
$GPGSV,3,2,11,25,25,090,20,11,18,296,24,12,12,058,22,01,11,318,23*76
$GPGSV,3,3,11,32,07,310,26,21,05,161,21,19,03,253,*45
$GPRMC,033125.000,A,2736.0621,N,08551.7650,E,158.54,269.64,300413,,,A*67
$GPVTG,269.64,T,,M,158.54,N,293.6,K,A*01
$GPGGA,033130.000,2736.0638,N,08551.5184,E,1,05,2.4,3092.8,M,-37.7,M,,0000*4F
$GPGSA,A,3,14,22,18,25,12,,,,,,,,2.6,2.4,1.0*39
$GPGSV,3,1,11,22,66,082,32,31,58,207,10,14,54,006,39,18,36,112,24*7B
$GPGSV,3,2,11,25,25,090,20,11,18,296,,12,12,058,23,01,11,318,24*76
$GPGSV,3,3,11,32,07,310,27,21,05,161,17,19,03,253,*41
$GPRMC,033130.000,A,2736.0638,N,08551.5184,E,158.81,271.33,300413,,,A*64
$GPVTG,271.33,T,,M,158.81,N,294.1,K,A*02
$GPGGA,033135.000,2736.0755,N,08551.2733,E,1,05,2.2,3088.5,M,-37.7,M,,0000*4D
$GPGSA,A,3,14,22,18,25,31,,,,,,,,4.7,2.2,4.2*3E
$GPGSV,3,1,11,22,66,082,33,31,58,207,24,14,54,006,39,18,36,112,23*7A
$GPGSV,3,2,11,25,25,090,25,11,18,296,,12,12,058,11,01,11,318,26*70
$GPGSV,3,3,11,32,07,310,27,21,05,161,,19,03,253,22*47
$GPRMC,033135.000,A,2736.0755,N,08551.2733,E,157.70,274.02,300413,,,A*60
$GPVTG,274.02,T,,M,157.70,N,292.1,K,A*02
$GPGGA,033140.000,2736.0981,N,08551.0291,E,1,06,1.7,3080.2,M,-37.7,M,,0000*4D
$GPGSA,A,3,14,22,18,25,12,11,,,,,,,2.4,1.7,1.7*3C
$GPGSV,3,1,11,22,66,082,32,31,58,207,18,14,54,006,39,18,36,112,23*74
$GPGSV,3,2,11,25,25,090,20,11,18,296,20,12,12,058,14,01,11,318,26*72
$GPGSV,3,3,11,32,07,310,,21,05,161,24,19,03,253,15*40
$GPVTG,276.58,T,,M,157.56,N,291.8,K,A*01
$GPGGA,033145.000,2736.1262,N,08550.7861,E,1,06,2.0,3072.4,M,-37.7,M,,0000*43
$GPGSA,A,3,14,22,18,25,12,31,,,,,,,3.4,2.0,2.8*37
$GPGSV,3,1,11,22,66,082,33,31,58,207,28,14,54,006,38,18,36,112,25*71
$GPGSV,3,2,11,25,25,090,28,11,18,296,,12,12,058,23,01,11,318,25*7F
$GPGSV,3,3,11,32,07,310,,21,05,161,21,19,03,253,18*48
$GPRMC,033145.000,A,2736.1262,N,08550.7861,E,156.57,277.76,300413,,,A*6F
$GPVTG,277.76,T,,M,156.57,N,290.0,K,A*05
$GPGGA,033150.000,2736.1574,N,08550.5427,E,1,07,1.3,3063.9,M,-37.7,M,,0000*47
$GPGSA,A,3,14,22,18,25,12,31,11,,,,,,2.1,1.3,1.7*3F
$GPGSV,3,1,11,22,66,082,33,31,58,207,21,14,54,006,38,18,36,112,26*7B
$GPGSV,3,2,11,25,25,090,28,11,18,296,21,12,12,058,23,01,11,318,24*7D
$GPGSV,3,3,11,32,07,310,21,21,05,161,21,19,03,253,19*4A
$GPRMC,033150.000,A,2736.1574,N,08550.5427,E,157.36,278.73,300413,,,A*6B
$GPVTG,278.73,T,,M,157.36,N,291.4,K,A*0C
$GPGGA,033155.000,2736.1934,N,08550.2996,E,1,07,1.3,3055.1,M,-37.7,M,,0000*47
$GPGSA,A,3,14,22,18,25,12,31,11,,,,,,2.1,1.3,1.7*3F
$GPGSV,3,1,11,22,66,082,34,31,58,207,28,14,54,006,34,18,36,112,26*79
$GPGSV,3,2,11,25,25,090,27,11,18,296,21,12,12,058,23,01,11,318,24*72
$GPGSV,3,3,11,32,07,310,20,21,05,161,,19,03,253,18*49
$GPRMC,033155.000,A,2736.1934,N,08550.2996,E,158.36,279.52,300413,,,A*6B
$GPVTG,279.52,T,,M,158.36,N,293.3,K,A*04
$GPGGA,033200.000,2736.2300,N,08550.0541,E,1,06,1.4,3044.0,M,-37.7,M,,0000*49
$GPGSA,A,3,14,22,18,25,31,11,,,,,,,2.4,1.4,1.9*30
$GPGSV,3,1,11,22,66,082,34,31,58,207,21,14,54,006,32,18,36,112,27*77
$GPGSV,3,2,11,25,25,090,27,11,18,296,25,12,12,058,09,01,11,318,13*7A
$GPGSV,3,3,11,32,07,310,21,21,05,161,18,19,03,253,19*40
$GPRMC,033200.000,A,2736.2300,N,08550.0541,E,158.61,279.62,300413,,,A*63
$GPVTG,279.62,T,,M,158.61,N,293.7,K,A*01
$GPGGA,033205.000,2736.2671,N,08549.8107,E,1,07,1.3,3038.7,M,-37.7,M,,0000*43
$GPGSA,A,3,14,22,18,25,12,31,11,,,,,,2.1,1.3,1.7*3F
$GPGSV,3,1,11,22,66,082,35,31,58,207,27,14,54,006,32,18,36,112,27*70
$GPGSV,3,2,11,25,25,090,27,11,18,296,24,12,12,058,26,01,11,318,20*76
$GPGSV,3,3,11,32,07,310,17,21,05,161,20,19,03,253,24*40
$GPRMC,033205.000,A,2736.2671,N,08549.8107,E,158.25,279.43,300413,,,A*60
$GPVTG,279.43,T,,M,158.25,N,293.1,K,A*04
$GPGGA,033210.000,2736.3042,N,08549.5672,E,1,07,1.3,3032.1,M,-37.7,M,,0000*44
$GPGSA,A,3,14,22,18,25,12,31,11,,,,,,2.1,1.3,1.7*3F
$GPGSV,3,1,11,22,66,082,35,31,58,207,26,14,54,006,33,18,36,112,27*70
$GPGSV,3,2,11,25,25,090,26,11,18,296,24,12,12,058,25,01,11,318,26*72
$GPGSV,3,3,11,32,07,310,18,21,05,161,21,19,03,253,24*4E
$GPVTG,279.66,T,,M,158.36,N,293.3,K,A*03
$GPGGA,033215.000,2736.3420,N,08549.3233,E,1,07,1.3,3022.4,M,-37.7,M,,0000*42
$GPGSA,A,3,14,22,18,25,12,31,11,,,,,,2.1,1.3,1.7*3F
$GPGSV,3,1,11,22,66,082,36,31,58,207,26,14,54,006,33,18,36,112,26*72
$GPGSV,3,2,11,25,25,090,26,11,18,296,23,12,12,058,25,01,11,318,26*75
$GPGSV,3,3,11,32,07,310,19,21,05,161,20,19,03,253,24*4E
$GPRMC,033215.000,A,2736.3420,N,08549.3233,E,158.89,279.92,300413,,,A*63
$GPVTG,279.92,T,,M,158.89,N,294.3,K,A*0B
$GPGGA,033220.000,2736.3806,N,08549.0780,E,1,07,1.3,3010.0,M,-37.7,M,,0000*47
$GPGSA,A,3,14,22,18,25,12,31,11,,,,,,2.1,1.3,1.7*3F
$GPGSV,3,1,11,22,66,082,36,31,58,207,25,14,54,006,34,18,36,112,25*75
$GPGSV,3,2,11,25,25,090,26,11,18,296,22,12,12,058,25,01,11,318,26*74
$GPGSV,3,3,11,32,07,310,19,21,05,161,20,19,03,253,23*49
$GPRMC,033220.000,A,2736.3806,N,08549.0780,E,159.99,280.01,300413,,,A*6F
$GPVTG,280.01,T,,M,159.99,N,296.3,K,A*05
$GPGGA,033225.000,2736.4186,N,08548.8316,E,1,07,1.3,2998.3,M,-37.7,M,,0000*4D
$GPGSA,A,3,14,22,18,25,12,31,11,,,,,,2.1,1.3,1.7*3F
$GPGSV,3,1,11,22,66,082,36,31,58,207,22,14,54,006,34,18,36,112,26*71
$GPGSV,3,2,11,25,25,090,26,11,18,296,22,12,12,058,24,01,11,318,27*74
$GPGSV,3,3,11,32,07,310,20,21,05,161,20,19,03,253,24*44
$GPRMC,033225.000,A,2736.4186,N,08548.8316,E,160.40,279.79,300413,,,A*69
$GPVTG,279.79,T,,M,160.40,N,297.1,K,A*01
$GPGGA,033230.000,2736.4575,N,08548.5853,E,1,07,1.3,2987.1,M,-37.7,M,,0000*4A
$GPGSA,A,3,14,22,18,25,12,31,11,,,,,,2.1,1.3,1.7*3F
$GPGSV,3,1,11,22,66,082,36,31,58,207,22,14,54,006,34,18,36,112,25*72
$GPGSV,3,2,11,25,25,090,27,11,18,296,21,12,12,058,23,01,11,318,27*71
$GPGSV,3,3,11,32,07,310,20,21,05,161,20,19,03,253,25*45
$GPRMC,033230.000,A,2736.4575,N,08548.5853,E,159.99,280.10,300413,,,A*65
$GPVTG,280.10,T,,M,159.99,N,296.3,K,A*05
$GPGGA,033235.000,2736.4979,N,08548.3394,E,1,07,1.3,2977.7,M,-37.7,M,,0000*40
$GPGSA,A,3,14,22,18,25,12,31,11,,,,,,2.1,1.3,1.7*3F
$GPGSV,3,1,11,22,65,086,36,31,59,207,23,14,53,008,34,18,35,113,25*7E
$GPGSV,3,2,11,25,25,088,27,11,19,295,19,01,12,317,28,12,12,057,23*7D
$GPGSV,3,3,11,32,08,310,21,21,04,161,20,19,03,252,25*4B
$GPRMC,033235.000,A,2736.4979,N,08548.3394,E,160.22,280.68,300413,,,A*63
$GPVTG,280.68,T,,M,160.22,N,296.7,K,A*04
$GPGGA,033240.000,2736.5401,N,08548.0943,E,1,06,2.0,2969.6,M,-37.7,M,,0000*4D
$GPGSA,A,3,14,22,18,25,12,31,,,,,,,3.4,2.0,2.8*37
$GPGSV,3,1,11,22,65,086,36,31,59,207,24,14,53,008,34,18,35,113,26*7A
$GPGSV,3,2,11,25,25,088,27,11,19,295,,01,12,317,29,12,12,057,22*75
$GPGSV,3,3,11,32,08,310,22,21,04,161,20,19,03,252,24*49
$GPRMC,033240.000,A,2736.5401,N,08548.0943,E,159.95,280.75,300413,,,A*6B
$GPVTG,280.75,T,,M,159.95,N,296.2,K,A*0B
$GPGGA,033245.000,2736.5824,N,08547.8485,E,1,06,2.0,2960.4,M,-37.7,M,,0000*48
$GPGSA,A,3,14,22,18,25,12,31,,,,,,,3.4,2.0,2.8*37
$GPGSV,3,1,11,22,65,086,36,31,59,207,24,14,53,009,34,18,34,113,27*7B
$GPGSV,3,2,11,25,25,088,28,11,19,295,,01,12,317,29,12,12,057,22*7A
$GPGSV,3,3,11,32,08,310,22,21,03,161,20,19,03,252,24*4E
$GPVTG,281.00,T,,M,160.03,N,296.4,K,A*0B
$GPGGA,033250.000,2736.6232,N,08547.6001,E,1,07,1.3,2948.8,M,-37.7,M,,0000*43
$GPGSA,A,3,14,22,18,25,12,31,11,,,,,,2.1,1.3,1.7*3F
$GPGSV,3,1,11,22,65,086,36,31,59,207,25,14,53,009,34,18,34,113,27*7A
$GPGSV,3,2,11,25,25,088,28,11,19,295,19,01,12,317,29,12,12,057,22*72
$GPGSV,3,3,11,32,08,310,22,21,03,161,20,19,03,252,24*4E
$GPRMC,033250.000,A,2736.6232,N,08547.6001,E,161.05,280.41,300413,,,A*6C
$GPVTG,280.41,T,,M,161.05,N,298.2,K,A*00
$GPGGA,033255.000,2736.6622,N,08547.3519,E,1,07,1.3,2940.2,M,-37.7,M,,0000*48
$GPGSA,A,3,14,22,18,25,12,31,11,,,,,,2.1,1.3,1.7*3F
$GPGSV,3,1,11,22,65,086,36,31,59,207,24,14,53,009,34,18,34,113,27*7B
$GPGSV,3,2,11,25,25,088,27,11,19,295,19,01,12,317,28,12,12,057,22*7C
$GPGSV,3,3,11,32,08,310,17,21,03,161,21,19,03,252,24*49
$GPRMC,033255.000,A,2736.6622,N,08547.3519,E,160.77,279.89,300413,,,A*63
$GPVTG,279.89,T,,M,160.77,N,297.7,K,A*0C
$GPGGA,033300.000,2736.7008,N,08547.1051,E,1,07,1.3,2935.2,M,-37.7,M,,0000*4F
$GPGSA,A,3,14,22,18,25,12,31,11,,,,,,2.1,1.3,1.7*3F
$GPGSV,3,1,11,22,65,086,36,31,59,207,25,14,53,009,34,18,34,113,27*7A
$GPGSV,3,2,11,25,25,088,28,11,19,295,19,01,12,317,28,12,12,057,21*70
$GPGSV,3,3,11,32,08,310,18,21,03,161,21,19,03,252,24*46
$GPRMC,033300.000,A,2736.7008,N,08547.1051,E,160.57,279.66,300413,,,A*65
$GPVTG,279.66,T,,M,160.57,N,297.4,K,A*0C
$GPGGA,033305.000,2736.7397,N,08546.8589,E,1,07,1.3,2930.9,M,-37.7,M,,0000*49
$GPGSA,A,3,14,22,18,25,12,31,11,,,,,,2.1,1.3,1.7*3F
$GPGSV,3,1,11,22,65,086,36,31,59,207,26,14,53,009,34,18,34,113,26*78
$GPGSV,3,2,11,25,25,088,28,11,19,295,18,01,12,317,29,12,12,057,20*71
$GPGSV,3,3,11,32,08,310,20,21,03,161,21,19,03,252,24*4D
$GPRMC,033305.000,A,2736.7397,N,08546.8589,E,160.00,280.01,300413,,,A*68
$GPVTG,280.01,T,,M,160.00,N,296.3,K,A*0F
$GPGGA,033310.000,2736.7792,N,08546.6134,E,1,07,1.3,2926.7,M,-37.7,M,,0000*49
$GPGSA,A,3,14,22,18,25,12,31,11,,,,,,2.1,1.3,1.7*3F
$GPGSV,3,1,11,22,65,086,36,31,59,207,26,14,53,009,34,18,34,113,27*79
$GPGSV,3,2,11,25,25,088,28,11,19,295,17,01,12,317,28,12,12,057,20*7F
$GPGSV,3,3,11,32,08,310,21,21,03,161,20,19,03,252,25*4C
$GPRMC,033310.000,A,2736.7792,N,08546.6134,E,159.97,280.30,300413,,,A*67
$GPVTG,280.30,T,,M,159.97,N,296.3,K,A*09
$GPGGA,033315.000,2736.8193,N,08546.3679,E,1,06,2.0,2920.3,M,-37.7,M,,0000*4C
$GPGSA,A,3,14,22,18,25,12,31,,,,,,,3.4,2.0,2.8*37
$GPGSV,3,1,11,22,65,087,36,31,60,208,25,14,53,009,34,18,34,113,27*7E
$GPGSV,3,2,11,25,25,088,28,11,19,295,,01,12,317,29,12,12,057,19*72
$GPGSV,3,3,11,32,09,310,22,21,03,161,20,19,03,252,19*41
$GPVTG,280.64,T,,M,159.53,N,295.4,K,A*04
$GPGGA,033320.000,2736.8611,N,08546.1223,E,1,06,2.0,2913.0,M,-37.7,M,,0000*4D
$GPGSA,A,3,14,22,18,25,12,31,,,,,,,3.4,2.0,2.8*37
$GPGSV,3,1,11,22,65,087,36,31,60,208,25,14,53,009,34,18,34,113,27*7E
$GPGSV,3,2,11,25,25,088,28,11,19,295,,01,12,317,29,12,12,057,21*79
$GPGSV,3,3,11,32,09,310,22,21,03,161,19,19,03,252,25*44
$GPRMC,033320.000,A,2736.8611,N,08546.1223,E,160.31,280.80,300413,,,A*6E
$GPVTG,280.80,T,,M,160.31,N,296.9,K,A*0E
$GPGGA,033325.000,2736.9015,N,08545.8733,E,1,05,6.9,2899.5,M,-37.7,M,,0000*4D
$GPGSA,A,3,14,22,18,25,12,,,,,,,,9.6,6.9,6.7*3B
$GPGSV,3,1,11,22,65,087,27,31,60,208,17,14,53,009,34,18,34,113,19*72
$GPGSV,3,2,11,25,25,088,27,11,19,295,,01,12,317,22,12,12,057,22*7E
$GPGSV,3,3,11,32,09,310,22,21,03,161,19,19,03,252,25*44
$GPRMC,033325.000,A,2736.9015,N,08545.8733,E,161.33,280.63,300413,,,A*68
$GPVTG,280.63,T,,M,161.33,N,298.8,K,A*0F
$GPGGA,033330.000,2736.9419,N,08545.6228,E,1,08,1.3,2885.4,M,-37.7,M,,0000*4C
$GPGSA,A,3,14,22,18,25,12,01,31,11,,,,,2.0,1.3,1.6*3E
$GPGSV,3,1,11,22,65,087,28,31,60,208,19,14,53,009,34,18,34,113,22*7B
$GPGSV,3,2,11,25,25,088,27,11,19,295,22,01,12,317,16,12,12,057,21*7A
$GPGSV,3,3,11,32,09,310,07,21,03,161,20,19,03,252,24*48
$GPRMC,033330.000,A,2736.9419,N,08545.6228,E,163.80,280.12,300413,,,A*69
$GPVTG,280.12,T,,M,163.80,N,303.4,K,A*0C
$GPGGA,033335.000,2736.9810,N,08545.3718,E,1,08,1.3,2873.0,M,-37.7,M,,0000*42
$GPGSA,A,3,14,22,18,25,12,01,31,11,,,,,2.0,1.3,1.6*3E
$GPGSV,3,1,11,22,65,087,28,31,60,208,20,14,53,009,34,18,34,113,23*70
$GPGSV,3,2,11,25,25,088,26,11,19,295,23,01,12,317,14,12,12,057,20*79
$GPGSV,3,3,11,32,09,310,,21,03,161,20,19,03,252,21*4A
$GPRMC,033335.000,A,2736.9810,N,08545.3718,E,163.54,279.97,300413,,,A*68
$GPVTG,279.97,T,,M,163.54,N,302.9,K,A*02
$GPGGA,033340.000,2737.0222,N,08545.1200,E,1,08,1.3,2861.2,M,-37.7,M,,0000*4C
$GPGSA,A,3,14,22,18,25,12,01,31,11,,,,,2.0,1.3,1.6*3E
$GPGSV,3,1,11,22,65,087,29,31,60,208,15,14,53,009,34,18,34,113,26*72
$GPGSV,3,2,11,25,25,088,26,11,19,295,23,01,12,317,16,12,12,057,12*7A
$GPGSV,3,3,11,32,09,310,,21,03,161,21,19,03,252,20*4A
$GPRMC,033340.000,A,2737.0222,N,08545.1200,E,163.84,280.95,300413,,,A*6E
$GPVTG,280.95,T,,M,163.84,N,303.4,K,A*07
$GPGGA,033345.000,2737.0650,N,08544.8668,E,1,07,1.4,2848.8,M,-37.7,M,,0000*43
$GPGSA,A,3,14,22,18,25,12,01,31,,,,,,2.2,1.4,1.7*3A
$GPGSV,3,1,11,22,65,087,30,31,60,208,25,14,53,009,34,18,34,113,23*7C
$GPGSV,3,2,11,25,25,088,25,11,19,295,,01,12,317,21,12,12,057,17*79
$GPRMC,033345.000,A,2737.0650,N,08544.8668,E,165.43,280.87,300413,,,A*66
$GPVTG,280.87,T,,M,165.43,N,306.4,K,A*0C
$GPGGA,033350.000,2737.1072,N,08544.6103,E,1,07,1.4,2835.8,M,-37.7,M,,0000*4E
$GPGSA,A,3,14,22,18,25,12,01,31,,,,,,2.2,1.4,1.7*3A
$GPGSV,3,1,11,22,65,087,29,31,60,208,24,14,53,009,35,18,34,113,24*73
$GPGSV,3,2,11,25,25,088,25,11,19,295,,01,12,317,20,12,12,057,19*76
$GPGSV,3,3,11,32,09,310,17,21,03,161,20,19,03,252,*4F
$GPRMC,033350.000,A,2737.1072,N,08544.6103,E,166.65,281.33,300413,,,A*68
$GPGGA,033355.000,2737.1555,N,08544.3553,E,1,06,1.5,2823.9,M,-37.7,M,,0000*49
$GPGSA,A,3,14,22,25,12,01,31,,,,,,,2.3,1.5,1.8*3C
$GPGSV,3,1,11,22,65,087,29,31,60,208,24,14,53,009,35,18,34,113,11*75
$GPGSV,3,2,11,25,25,088,18,11,19,295,,01,12,317,20,12,12,057,20*72
$GPGSV,3,3,11,32,09,310,24,21,03,161,19,19,03,252,*45
$GPRMC,033355.000,A,2737.1555,N,08544.3553,E,166.52,281.74,300413,,,A*6E
$GPVTG,281.74,T,,M,166.52,N,308.4,K,A*0C
$GPGGA,033400.000,2737.2043,N,08544.0996,E,1,07,1.4,2813.7,M,-37.7,M,,0000*44
$GPGSA,A,3,14,22,18,25,12,01,31,,,,,,2.2,1.4,1.7*3A
$GPGSV,3,1,11,22,65,087,28,31,60,208,24,14,53,009,36,18,34,113,13*75
$GPGSV,3,2,11,25,25,088,20,11,19,295,,01,12,317,19,12,12,057,20*73
$GPGSV,3,3,11,32,09,310,21,21,03,161,19,19,03,252,19*48
$GPRMC,033400.000,A,2737.2043,N,08544.0996,E,168.35,282.04,300413,,,A*65
$GPVTG,282.04,T,,M,168.35,N,311.8,K,A*03
$GPGGA,033405.000,2737.2548,N,08543.8440,E,1,07,1.4,2805.5,M,-37.7,M,,0000*43
$GPGSA,A,3,14,22,18,25,12,01,31,,,,,,2.2,1.4,1.7*3A
$GPGSV,3,1,11,22,65,087,28,31,60,208,24,14,53,009,36,18,34,113,12*74
$GPGSV,3,2,11,25,25,088,21,11,19,295,,01,12,317,19,12,12,057,19*78
$GPGSV,3,3,11,32,09,310,20,21,03,161,19,19,03,252,23*40
$GPRMC,033405.000,A,2737.2548,N,08543.8440,E,166.68,282.60,300413,,,A*63
$GPVTG,282.60,T,,M,166.68,N,308.7,K,A*00
$GPGGA,033410.000,2737.3075,N,08543.5908,E,1,07,1.4,2798.8,M,-37.7,M,,0000*47
$GPGSA,A,3,14,22,18,25,12,01,31,,,,,,2.2,1.4,1.7*3A
$GPGSV,3,1,11,22,65,087,28,31,60,208,24,14,53,009,36,18,34,113,25*70
$GPGSV,3,2,11,25,25,088,22,11,19,295,,01,12,317,26,12,12,057,21*7C
$GPGSV,3,3,11,32,09,310,20,21,03,161,18,19,03,252,19*48
$GPRMC,033410.000,A,2737.3075,N,08543.5908,E,166.42,282.86,300413,,,A*61
$GPVTG,282.86,T,,M,166.42,N,308.2,K,A*05
$GPGGA,033415.000,2737.3580,N,08543.3372,E,1,07,1.4,2791.2,M,-37.7,M,,0000*4F
$GPGSA,A,3,14,22,18,25,12,01,31,,,,,,2.2,1.4,1.7*3A
$GPGSV,3,1,11,22,65,088,30,31,60,208,23,14,53,010,36,18,34,114,25*7E
$GPGSV,3,2,11,25,25,087,23,11,19,294,,01,13,317,24,12,12,056,23*73
$GPRMC,033415.000,A,2737.3580,N,08543.3372,E,165.59,282.55,300413,,,A*6D
$GPVTG,282.55,T,,M,165.59,N,306.7,K,A*09
$GPGGA,033420.000,2737.4066,N,08543.0851,E,1,06,1.9,2783.6,M,-37.7,M,,0000*41
$GPGSA,A,3,14,22,18,25,12,01,,,,,,,2.5,1.9,1.7*32
$GPGSV,3,1,11,22,65,088,33,31,60,208,11,14,53,010,35,18,34,114,25*7F
$GPGSV,3,2,11,25,25,087,23,11,19,294,,01,13,317,24,12,12,056,23*73
$GPGSV,3,3,11,32,09,311,20,21,03,161,18,19,03,251,20*40
$GPRMC,033420.000,A,2737.4066,N,08543.0851,E,165.08,281.81,300413,,,A*66
$GPGGA,033425.000,2737.4521,N,08542.8322,E,1,07,1.4,2776.9,M,-37.7,M,,0000*4D
$GPGSA,A,3,14,22,18,25,12,01,31,,,,,,2.2,1.4,1.7*3A
$GPGSV,3,1,11,22,65,088,27,31,60,208,14,14,53,010,36,18,34,114,12*78
$GPGSV,3,2,11,25,25,087,22,11,19,294,,01,13,317,24,12,12,056,23*72
$GPGSV,3,3,11,32,09,311,21,21,03,161,18,19,03,251,21*40
$GPRMC,033425.000,A,2737.4521,N,08542.8322,E,165.07,281.22,300413,,,A*65
$GPVTG,281.22,T,,M,165.07,N,305.7,K,A*02
$GPGGA,033430.000,2737.4963,N,08542.5783,E,1,07,1.4,2769.8,M,-37.7,M,,0000*4E
$GPGSA,A,3,14,22,18,25,12,01,31,,,,,,2.2,1.4,1.7*3A
$GPGSV,3,1,11,22,65,088,27,31,60,208,23,14,53,010,36,18,34,114,23*7E
$GPGSV,3,2,11,25,25,087,22,11,19,294,,01,13,317,24,12,12,056,22*73
$GPGSV,3,3,11,32,09,311,22,21,03,161,18,19,03,251,22*40
$GPRMC,033430.000,A,2737.4963,N,08542.5783,E,165.30,281.29,300413,,,A*66
$GPVTG,281.29,T,,M,165.30,N,306.1,K,A*08
$GPGGA,033435.000,2737.5445,N,08542.3259,E,1,07,1.4,2758.2,M,-37.7,M,,0000*4F
$GPGSA,A,3,14,22,18,25,12,01,31,,,,,,2.2,1.4,1.7*3A
$GPGSV,3,1,11,22,65,088,28,31,60,208,22,14,53,010,36,18,34,114,22*71
$GPGSV,3,2,11,25,25,087,21,11,19,294,,01,13,317,23,12,12,056,21*74
$GPGSV,3,3,11,32,09,311,22,21,03,161,18,19,03,251,19*48
$GPRMC,033435.000,A,2737.5445,N,08542.3259,E,165.32,282.22,300413,,,A*65
$GPVTG,282.22,T,,M,165.32,N,306.2,K,A*01
$GPGGA,033440.000,2737.5936,N,08542.0731,E,1,07,1.4,2749.1,M,-37.7,M,,0000*4F
$GPGSA,A,3,14,22,18,25,12,01,31,,,,,,2.2,1.4,1.7*3A
$GPGSV,3,1,11,22,65,088,27,31,60,208,23,14,53,010,36,18,34,114,17*79
$GPGSV,3,2,11,25,25,087,21,11,19,294,,01,13,317,23,12,12,056,22*77
$GPGSV,3,3,11,32,09,311,22,21,03,161,18,19,03,251,23*41
$GPRMC,033440.000,A,2737.5936,N,08542.0731,E,165.84,282.83,300413,,,A*60
$GPVTG,282.83,T,,M,165.84,N,307.1,K,A*05
$GPGGA,033445.000,2737.6449,N,08541.8210,E,1,07,1.4,2740.6,M,-37.7,M,,0000*4F
$GPGSA,A,3,14,22,18,25,12,01,31,,,,,,2.2,1.4,1.7*3A
$GPGSV,3,1,11,22,65,088,27,31,61,208,24,14,53,010,36,18,34,114,23*78
$GPGSV,3,2,11,25,25,087,22,11,19,294,,01,13,317,23,12,12,056,23*75
$GPGSV,3,3,11,32,09,311,22,21,03,161,19,19,03,251,22*41
$GPVTG,282.84,T,,M,165.33,N,306.2,K,A*0C
$GPGGA,033450.000,2737.6954,N,08541.5676,E,1,08,1.3,2734.8,M,-37.7,M,,0000*46
$GPGSA,A,3,14,22,18,25,12,01,31,11,,,,,2.0,1.3,1.6*3E
$GPGSV,3,1,11,22,65,088,26,31,61,208,24,14,53,010,36,18,34,114,22*78
$GPGSV,3,2,11,25,25,087,23,11,19,294,17,01,13,317,22,12,12,056,23*73
$GPGSV,3,3,11,32,09,311,22,21,03,161,19,19,03,251,24*47
$GPRMC,033450.000,A,2737.6954,N,08541.5676,E,166.16,282.75,300413,,,A*63
$GPVTG,282.75,T,,M,166.16,N,307.7,K,A*02
$GPGGA,033455.000,2737.7491,N,08541.3157,E,1,08,1.3,2731.5,M,-37.7,M,,0000*4C
$GPGSA,A,3,14,22,18,25,12,01,31,11,,,,,2.0,1.3,1.6*3E
$GPGSV,3,1,11,22,65,088,26,31,61,208,23,14,53,010,36,18,34,114,21*7C
$GPGSV,3,2,11,25,25,087,24,11,19,294,17,01,13,317,17,12,12,056,23*72
$GPGSV,3,3,11,32,09,311,23,21,03,161,18,19,03,251,23*40
$GPRMC,033455.000,A,2737.7491,N,08541.3157,E,165.34,283.09,300413,,,A*68
$GPVTG,283.09,T,,M,165.34,N,306.2,K,A*0F
$GPGGA,033500.000,2737.8001,N,08541.0640,E,1,08,1.3,2725.3,M,-37.7,M,,0000*4E
$GPGSA,A,3,14,22,18,25,12,01,31,11,,,,,2.0,1.3,1.6*3E
$GPGSV,3,1,11,22,65,088,26,31,61,208,23,14,53,010,36,18,34,114,21*7C
$GPGSV,3,2,11,25,25,087,24,11,19,294,17,01,13,317,19,12,12,056,23*7C
$GPGSV,3,3,11,32,09,311,23,21,03,161,18,19,03,251,19*49
$GPRMC,033500.000,A,2737.8001,N,08541.0640,E,164.57,283.31,300413,,,A*66
$GPVTG,283.31,T,,M,164.57,N,304.8,K,A*08
$GPGGA,033505.000,2737.8538,N,08540.8148,E,1,08,1.3,2720.4,M,-37.7,M,,0000*40
$GPGSA,A,3,14,22,18,25,12,01,31,11,,,,,2.0,1.3,1.6*3E
$GPGSV,3,1,11,22,65,088,26,31,61,208,20,14,53,010,36,18,34,114,22*7C
$GPGSV,3,2,11,25,25,087,24,11,19,294,17,01,13,317,20,12,12,056,23*76
$GPGSV,3,3,11,32,09,311,23,21,03,161,18,19,03,251,19*49
$GPRMC,033505.000,A,2737.8538,N,08540.8148,E,163.80,283.67,300413,,,A*64
$GPVTG,283.67,T,,M,163.80,N,303.3,K,A*0A
$GPGGA,033510.000,2737.9059,N,08540.5659,E,1,08,1.3,2715.6,M,-37.7,M,,0000*49
$GPGSA,A,3,14,22,18,25,12,01,31,11,,,,,2.0,1.3,1.6*3E
$GPGSV,3,1,11,22,65,088,30,31,61,208,15,14,53,010,36,18,34,114,23*7C
$GPGSV,3,2,11,25,25,087,24,11,19,294,17,01,13,317,21,12,12,056,22*76
$GPGSV,3,3,11,32,09,311,23,21,03,161,,19,03,251,18*41
$GPRMC,033510.000,A,2737.9059,N,08540.5659,E,164.11,282.97,300413,,,A*68
$GPVTG,282.97,T,,M,164.11,N,303.9,K,A*01
$GPGGA,033515.000,2737.9572,N,08540.3172,E,1,07,1.4,2710.3,M,-37.7,M,,0000*40
$GPGSA,A,3,14,22,18,25,12,01,31,,,,,,2.2,1.4,1.7*3A
$GPGSV,3,1,11,22,65,088,29,31,61,208,18,14,53,010,36,18,34,114,22*78
$GPGSV,3,2,11,25,25,087,25,11,19,294,,01,13,317,23,12,12,056,23*72
$GPGSV,3,3,11,32,09,311,23,21,03,161,20,19,03,251,18*43
$GPRMC,033515.000,A,2737.9572,N,08540.3172,E,163.09,282.75,300413,,,A*6B
$GPVTG,282.75,T,,M,163.09,N,302.0,K,A*0B
$GPGGA,033520.000,2738.0071,N,08540.0691,E,1,07,1.4,2705.0,M,-37.7,M,,0000*48
$GPGSA,A,3,14,22,18,25,12,01,31,,,,,,2.2,1.4,1.7*3A
$GPGSV,3,1,11,22,65,088,28,31,61,208,24,14,53,010,36,18,34,114,15*72
$GPGSV,3,2,11,25,25,087,25,11,19,294,,01,13,317,23,12,12,056,22*73
$GPGSV,3,3,11,32,09,311,23,21,03,161,19,19,03,251,18*49
$GPVTG,282.60,T,,M,162.80,N,301.5,K,A*09
$GPGGA,033525.000,2738.0582,N,08539.8220,E,1,07,1.4,2702.1,M,-37.7,M,,0000*4A
$GPGSA,A,3,14,22,18,25,12,01,31,,,,,,2.2,1.4,1.7*3A
$GPGSV,3,1,11,22,65,088,27,31,61,208,23,14,53,010,36,18,34,114,15*7A
$GPGSV,3,2,11,25,25,087,25,11,19,294,,01,13,317,23,12,12,056,22*73
$GPGSV,3,3,11,32,09,311,23,21,03,161,19,19,03,251,18*49
$GPRMC,033525.000,A,2738.0582,N,08539.8220,E,162.32,283.02,300413,,,A*68
$GPVTG,283.02,T,,M,162.32,N,300.6,K,A*07
$GPGGA,033530.000,2738.1086,N,08539.5767,E,1,08,1.3,2702.4,M,-37.7,M,,0000*48
$GPGSA,A,3,14,22,18,25,12,01,31,11,,,,,2.0,1.3,1.6*3E
$GPGSV,3,1,11,22,65,088,28,31,61,208,17,14,53,010,35,18,34,114,23*74
$GPGSV,3,2,11,25,25,087,25,11,19,294,17,01,13,317,24,12,12,056,23*73
