$GPGGA,044345.000,2742.9933,N,08518.6040,E,1,05,1.5,1316.8,M,-37.4,M,,0000*4A
$GPGSA,A,3,31,14,22,01,25,,,,,,,,2.7,1.5,2.3*33
$GPGSV,3,1,10,31,79,330,33,22,42,132,24,14,39,049,22,32,34,320,*73
$GPGSV,3,2,10,01,26,291,15,25,22,054,12,11,19,264,,18,10,134,*71
$GPRMC,044345.000,A,2742.9933,N,08518.6040,E,3.39,25.75,300413,,,A*50
$GPVTG,25.75,T,,M,3.39,N,6.3,K,A*34
$GPGGA,044350.000,2742.9965,N,08518.6042,E,1,03,2.4,1317.1,M,-37.4,M,,0000*43
$GPGSA,A,2,31,14,22,,,,,,,,,,2.6,2.4,1.0*37
$GPGSV,3,1,10,31,79,330,33,22,42,132,14,14,39,049,21,32,34,320,*73
$GPGSV,3,2,10,01,26,291,,25,22,054,13,11,19,264,,18,10,134,*74
$GPGSV,3,3,10,20,07,317,,16,07,184,*75
$GPRMC,044350.000,A,2742.9965,N,08518.6042,E,4.72,348.41,300413,,,A*62
$GPVTG,348.41,T,,M,4.72,N,8.7,K,A*09
$GPGGA,044355.000,2743.0072,N,08518.6045,E,1,03,50.0,1313.3,M,-37.4,M,,0000*73
$GPGSA,A,2,31,14,25,,,,,,,,,,50.0,50.0,1.0*32
$GPGSV,3,1,10,31,79,330,29,22,42,132,18,14,39,049,19,32,34,320,*7F
$GPGSV,3,2,10,01,26,291,,25,22,054,14,11,19,264,,18,10,134,*73
$GPGSV,3,3,10,20,07,317,,16,07,184,*75
$GPRMC,044355.000,A,2743.0072,N,08518.6045,E,6.21,359.70,300413,,,A*61
$GPVTG,359.70,T,,M,6.21,N,11.5,K,A*35
$GPGGA,044400.000,2743.0185,N,08518.6017,E,6,00,50.0,1313.4,M,-37.4,M,,0000*79
$GPGSA,A,2,,,,,,,,,,,,,50.0,50.0,50.0*06
$GPGSV,3,1,10,31,79,330,34,22,42,132,18,14,39,049,,32,34,320,23*7A
$GPGSV,3,2,10,01,26,291,,25,22,054,,11,19,264,,18,10,134,*76
$GPGSV,3,3,10,20,07,317,,16,07,184,*75
$GPRMC,044400.000,A,2743.0185,N,08518.6017,E,6.96,341.10,300413,,,E*6F
$GPVTG,341.10,T,,M,6.96,N,12.9,K,N*36
$GPGGA,044405.000,2743.0302,N,08518.6088,E,1,04,5.3,1314.8,M,-37.4,M,,0000*4C
$GPGSA,A,3,31,01,25,14,,,,,,,,,5.4,5.3,1.0*35
$GPGSV,3,1,10,31,79,330,34,22,42,132,,14,39,049,21,32,34,320,*71
$GPGSV,3,2,10,01,26,291,17,25,22,054,21,11,19,264,,18,10,134,*73
$GPGSV,3,3,10,20,07,317,,16,07,184,*75
$GPRMC,044405.000,A,2743.0302,N,08518.6088,E,4.95,15.08,300413,,,A*5F
$GPVTG,15.08,T,,M,4.95,N,9.2,K,A*32
$GPGGA,044410.000,2743.0526,N,08518.6107,E,1,03,50.0,1315.1,M,-37.4,M,,0000*72
$GPGSA,A,2,31,25,14,,,,,,,,,,50.0,50.0,1.0*32
$GPGSV,3,1,10,31,79,330,25,22,42,132,18,14,39,049,20,32,34,320,11*79
$GPGSV,3,2,10,01,26,291,,25,22,054,17,11,19,264,,18,10,134,*70
$GPGSV,3,3,10,20,07,317,,16,07,184,*75
$GPRMC,044410.000,A,2743.0526,N,08518.6107,E,6.64,6.44,300413,,,A*6B
$GPGGA,044415.000,2743.0610,N,08518.6111,E,1,03,2.4,1316.0,M,-37.4,M,,0000*47
$GPGSA,A,2,31,22,14,,,,,,,,,,2.6,2.4,1.0*37
$GPGSV,3,1,10,31,79,330,33,22,42,132,19,14,39,049,19,32,34,320,*75
$GPGSV,3,2,10,01,26,291,,25,22,054,,11,19,264,,18,10,134,*76
$GPGSV,3,3,10,20,07,317,,16,07,184,*75
$GPRMC,044415.000,A,2743.0610,N,08518.6111,E,5.33,329.70,300413,,,A*67
$GPVTG,329.70,T,,M,5.33,N,9.9,K,N*08
$GPGGA,044420.000,2743.0721,N,08518.6049,E,1,03,2.4,1316.5,M,-37.4,M,,0000*4B
$GPGSA,A,2,31,22,14,,,,,,,,,,2.6,2.4,1.0*37
$GPGSV,3,1,10,31,79,330,26,22,42,132,20,14,39,049,19,32,34,320,18*72
$GPGSV,3,2,10,01,26,291,,25,22,054,,11,19,264,,18,10,134,*76
$GPGSV,3,3,10,20,07,317,,16,07,184,*75
$GPRMC,044420.000,A,2743.0721,N,08518.6049,E,7.96,340.17,300413,,,A*6D
$GPVTG,340.17,T,,M,7.96,N,14.7,K,N*39
$GPGGA,044425.000,2743.0749,N,08518.6032,E,1,04,1.7,1323.2,M,-37.4,M,,0000*4A
$GPGSA,A,3,31,22,11,14,,,,,,,,,3.0,1.7,2.5*37
$GPGSV,3,1,10,31,78,336,31,22,40,133,31,14,39,050,18,32,35,320,18*78
$GPGSV,3,2,10,01,26,289,,25,22,053,,11,19,262,16,18,08,135,*71
$GPGSV,3,3,10,20,08,317,,16,08,184,*75
$GPRMC,044425.000,A,2743.0749,N,08518.6032,E,1.23,291.94,300413,,,A*64
$GPVTG,291.94,T,,M,1.23,N,2.3,K,A*0B
$GPGGA,044430.000,2743.0741,N,08518.6020,E,1,03,2.8,1323.5,M,-37.4,M,,0000*49
$GPGSA,A,2,31,22,11,,,,,,,,,,3.0,2.8,1.0*39
$GPGSV,3,1,10,31,78,336,31,22,40,133,21,14,39,050,,32,35,320,28*73
$GPGSV,3,2,10,01,26,289,,25,22,053,,11,19,262,15,18,08,135,*72
$GPGSV,3,3,10,20,08,317,,16,08,184,*75
$GPRMC,044430.000,A,2743.0741,N,08518.6020,E,2.92,249.12,300413,,,A*69
$GPVTG,249.12,T,,M,2.92,N,5.4,K,N*06
$GPGGA,044435.000,2743.0717,N,08518.6005,E,1,04,4.7,1325.8,M,-37.4,M,,0000*4D
$GPGSA,A,3,31,22,11,01,,,,,,,,,6.9,4.7,5.0*38
$GPGSV,3,1,10,31,78,336,32,22,40,133,19,14,39,050,,32,35,320,20*73
$GPGSV,3,2,10,01,26,289,19,25,22,053,,11,19,262,28,18,08,135,*74
$GPGSV,3,3,10,20,08,317,,16,08,184,*75
$GPRMC,044435.000,A,2743.0717,N,08518.6005,E,0.00,206.03,300413,,,A*6A
$GPGGA,044440.000,2743.0717,N,08518.6005,E,1,06,1.3,1325.8,M,-37.4,M,,0000*4C
$GPGSA,A,3,31,22,11,01,14,25,,,,,,,2.3,1.3,1.9*38
$GPGSV,3,1,10,31,78,336,33,22,40,133,19,14,39,050,26,32,35,320,20*76
$GPGSV,3,2,10,01,26,289,22,25,22,053,19,11,19,262,21,18,08,135,*7D
$GPGSV,3,3,10,20,08,317,,16,08,184,*75
$GPRMC,044440.000,A,2743.0717,N,08518.6005,E,0.00,206.03,300413,,,A*68
$GPVTG,206.03,T,,M,0.00,N,0.0,K,A*0A
$GPGGA,044445.000,2743.0874,N,08518.6020,E,1,06,1.3,1301.0,M,-37.4,M,,0000*4A
$GPGSA,A,3,31,22,11,01,14,25,,,,,,,2.3,1.3,1.9*38
$GPGSV,3,1,10,31,78,336,33,22,40,133,21,14,39,050,21,32,35,320,26*7C
$GPGSV,3,2,10,01,26,289,24,25,22,053,16,11,19,262,21,18,08,135,*74
$GPGSV,3,3,10,20,08,317,23,16,08,184,*74
$GPRMC,044445.000,A,2743.0874,N,08518.6020,E,2.09,304.70,300413,,,A*6C
$GPVTG,304.70,T,,M,2.09,N,3.9,K,A*0C
$GPGGA,044450.000,2743.0861,N,08518.5954,E,1,03,28.4,1295.9,M,-37.4,M,,0000*7F
$GPGSA,A,2,31,11,14,,,,,,,,,,28.4,28.4,1.0*35
$GPGSV,3,1,10,31,78,336,33,22,40,133,15,14,39,050,28,32,35,320,24*70
$GPGSV,3,2,10,01,26,289,15,25,22,053,,11,19,262,13,18,08,135,*70
$GPGSV,3,3,10,20,08,317,,16,08,184,*75
$GPRMC,044450.000,A,2743.0861,N,08518.5954,E,4.25,250.36,300413,,,A*6F
$GPVTG,250.36,T,,M,4.25,N,7.9,K,A*02
$GPGGA,044455.000,2743.0736,N,08518.5799,E,1,05,1.5,1298.3,M,-37.4,M,,0000*43
$GPGSA,A,3,31,22,01,14,25,,,,,,,,2.7,1.5,2.3*33
$GPGSV,3,1,10,31,78,337,33,22,40,133,23,14,39,050,25,32,35,320,*7F
$GPGSV,3,2,10,01,26,289,13,25,21,053,22,11,19,262,11,20,08,317,*7E
$GPGSV,3,3,10,18,08,135,,16,08,183,*7B
$GPVTG,225.54,T,,M,11.86,N,22.0,K,A*07
$GPGGA,044500.000,2743.0699,N,08518.5676,E,1,05,3.6,1295.3,M,-37.4,M,,0000*4A
$GPGSA,A,3,31,11,01,14,25,,,,,,,,4.1,3.6,2.0*31
$GPGSV,3,1,10,31,78,337,33,22,40,133,18,14,39,050,25,32,35,320,23*76
$GPGSV,3,2,10,01,26,289,15,25,21,053,21,11,19,262,18,20,08,317,*72
$GPGSV,3,3,10,18,08,135,,16,08,183,*7B
$GPRMC,044500.000,A,2743.0699,N,08518.5676,E,3.74,239.72,300413,,,A*61
$GPVTG,239.72,T,,M,3.74,N,6.9,K,A*0F
$GPGGA,044505.000,2743.0642,N,08518.5663,E,1,05,3.6,1294.0,M,-37.4,M,,0000*4F
$GPGSA,A,3,31,11,01,14,25,,,,,,,,4.1,3.6,2.0*31
$GPGSV,3,1,10,31,78,337,32,22,40,133,12,14,39,050,26,32,35,320,22*7F
$GPGSV,3,2,10,01,26,289,18,25,21,053,25,11,19,262,18,20,08,317,*7B
$GPGSV,3,3,10,18,08,135,,16,08,183,*7B
$GPRMC,044505.000,A,2743.0642,N,08518.5663,E,4.35,187.41,300413,,,A*62
$GPVTG,187.41,T,,M,4.35,N,8.1,K,A*0D
$GPGGA,044510.000,2743.0576,N,08518.5658,E,1,05,3.6,1297.1,M,-37.4,M,,0000*45
$GPGSA,A,3,31,11,01,14,25,,,,,,,,4.1,3.6,2.0*31
$GPGSV,3,1,10,31,78,337,31,22,40,133,,14,39,050,31,32,35,320,21*7A
$GPGSV,3,2,10,01,26,289,21,25,21,053,21,11,19,262,17,20,08,317,*7A
$GPGSV,3,3,10,18,08,135,,16,08,183,*7B
$GPRMC,044510.000,A,2743.0576,N,08518.5658,E,4.34,191.29,300413,,,A*62
$GPVTG,191.29,T,,M,4.34,N,8.0,K,A*04
$GPGGA,044515.000,2743.0464,N,08518.5656,E,1,04,1.7,1300.4,M,-37.4,M,,0000*44
$GPGSA,A,3,31,22,11,14,,,,,,,,,3.0,1.7,2.5*37
$GPGSV,3,1,10,31,78,337,30,22,40,133,20,14,39,050,15,32,35,320,21*7F
$GPGSV,3,2,10,01,26,289,14,25,21,053,10,11,19,262,15,20,08,317,*7C
$GPGSV,3,3,10,18,08,135,,16,08,183,*7B
$GPRMC,044515.000,A,2743.0464,N,08518.5656,E,7.71,194.82,300413,,,A*6D
$GPVTG,194.82,T,,M,7.71,N,14.3,K,A*3C
$GPGGA,044520.000,2743.0485,N,08518.5601,E,1,06,1.3,1303.2,M,-37.4,M,,0000*4C
$GPGSA,A,3,31,22,11,01,14,25,,,,,,,2.3,1.3,1.9*38
$GPGSV,3,1,10,31,78,337,31,22,40,133,19,14,39,050,27,32,35,320,22*76
$GPGSV,3,2,10,01,26,289,19,25,21,053,18,11,19,262,14,20,08,317,*78
$GPGSV,3,3,10,18,08,135,,16,08,183,*7B
$GPRMC,044520.000,A,2743.0485,N,08518.5601,E,6.19,275.94,300413,,,A*62
$GPGGA,044525.000,2743.0650,N,08518.5462,E,1,05,1.4,1309.6,M,-37.4,M,,0000*4E
$GPGSA,A,3,31,22,01,14,25,,,,,,,,2.7,1.4,2.3*32
$GPGSV,3,1,10,31,78,337,31,22,40,133,19,14,39,050,29,32,35,320,23*79
$GPGSV,3,2,10,01,26,289,19,25,21,053,19,11,19,262,,20,08,317,*7C
$GPGSV,3,3,10,18,08,135,,16,08,183,*7B
$GPRMC,044525.000,A,2743.0650,N,08518.5462,E,3.94,322.44,300413,,,A*64
$GPVTG,322.44,T,,M,3.94,N,7.3,K,A*04
$GPGGA,044530.000,2743.0818,N,08518.5356,E,1,04,1.7,1313.5,M,-37.4,M,,0000*42
$GPGSA,A,3,31,22,01,14,,,,,,,,,3.2,1.7,2.7*36
$GPGSV,3,1,10,31,78,337,30,22,40,133,27,14,39,050,21,32,35,320,21*7F
$GPGSV,3,2,10,01,26,289,19,25,21,053,17,11,19,262,,20,08,317,*72
$GPGSV,3,3,10,18,08,135,,16,08,183,*7B
$GPRMC,044530.000,A,2743.0818,N,08518.5356,E,7.07,300.07,300413,,,A*6B
$GPVTG,300.07,T,,M,7.07,N,13.1,K,A*3A
$GPGGA,044535.000,2743.0861,N,08518.5236,E,1,04,1.7,1310.5,M,-37.4,M,,0000*4D
$GPGSA,A,3,31,22,01,14,,,,,,,,,3.2,1.7,2.7*36
$GPGSV,3,1,10,31,78,337,30,22,40,133,22,14,39,050,28,32,35,320,18*79
$GPGSV,3,2,10,01,26,289,20,25,21,053,,11,19,262,,20,08,317,*7E
$GPGSV,3,3,10,18,08,135,,16,08,183,*7B
$GPRMC,044535.000,A,2743.0861,N,08518.5236,E,4.55,284.28,300413,,,A*63
$GPVTG,284.28,T,,M,4.55,N,8.4,K,A*01
$GPGGA,044540.000,2743.0896,N,08518.5207,E,1,05,1.5,1306.8,M,-37.4,M,,0000*4C
$GPGSA,A,3,31,22,01,14,11,,,,,,,,2.9,1.5,2.5*3C
$GPGSV,3,1,10,31,78,337,21,22,40,133,21,14,39,050,20,32,35,320,23*7A
$GPGSV,3,2,10,01,26,289,23,25,21,053,,11,19,262,20,20,08,317,*7F
$GPGSV,3,3,10,18,08,135,,16,08,183,*7B
$GPRMC,044540.000,A,2743.0896,N,08518.5207,E,0.33,233.88,300413,,,A*69
$GPVTG,233.88,T,,M,0.33,N,0.6,K,A*09
$GPGGA,044545.000,2743.0896,N,08518.5207,E,1,05,1.5,1305.5,M,-37.4,M,,0000*47
$GPGSA,A,3,31,22,01,14,11,,,,,,,,2.9,1.5,2.5*3C
$GPGSV,3,1,10,31,78,337,29,22,40,133,28,14,39,050,22,32,35,320,20*7A
$GPGSV,3,2,10,01,26,289,24,25,21,053,,11,19,262,27,20,08,317,*7F
$GPGSV,3,3,10,18,08,135,,16,08,183,*7B
$GPRMC,044545.000,A,2743.0896,N,08518.5207,E,0.00,233.88,300413,,,A*6C
$GPGGA,044550.000,2743.0896,N,08518.5207,E,1,06,1.3,1305.5,M,-37.4,M,,0000*46
$GPGSA,A,3,31,22,25,01,14,11,,,,,,,2.3,1.3,1.9*38
$GPGSV,3,1,10,31,78,337,27,22,40,133,20,14,39,050,14,32,35,320,22*7B
$GPGSV,3,2,10,01,26,289,17,25,21,053,18,11,19,262,36,20,08,317,*76
$GPGSV,3,3,10,18,08,135,,16,08,183,*7B
$GPRMC,044550.000,A,2743.0896,N,08518.5207,E,0.00,233.88,300413,,,A*68
$GPVTG,233.88,T,,M,0.00,N,0.0,K,A*0F
$GPGGA,044555.000,2743.0896,N,08518.5207,E,1,04,4.9,1305.5,M,-37.4,M,,0000*4E
$GPGSA,A,3,31,22,01,11,,,,,,,,,7.2,4.9,5.2*3E
$GPGSV,3,1,10,31,78,337,29,22,40,133,20,14,39,050,13,32,35,320,28*78
$GPGSV,3,2,10,01,26,289,27,25,21,053,,11,19,262,29,20,08,317,*72
$GPGSV,3,3,10,18,08,135,,16,08,183,*7B
$GPRMC,044555.000,A,2743.0896,N,08518.5207,E,0.00,233.88,300413,,,A*6D
$GPVTG,233.88,T,,M,0.00,N,0.0,K,A*0F
$GPGGA,044600.000,2743.0896,N,08518.5207,E,1,06,1.3,1305.5,M,-37.4,M,,0000*40
$GPGSA,A,3,31,22,25,01,14,11,,,,,,,2.3,1.3,1.9*38
$GPGSV,3,1,10,31,78,337,28,22,40,133,25,14,39,050,24,32,35,320,27*77
$GPGSV,3,2,10,01,26,289,33,25,21,053,16,11,19,262,23,20,08,317,*7A
$GPGSV,3,3,10,18,08,135,,16,08,183,*7B
$GPRMC,044600.000,A,2743.0896,N,08518.5207,E,0.00,233.88,300413,,,A*6E
$GPVTG,233.88,T,,M,0.00,N,0.0,K,A*0F
$GPGGA,044605.000,2743.0896,N,08518.5207,E,1,06,1.3,1305.5,M,-37.4,M,,0000*45
$GPGSA,A,3,31,22,25,01,14,11,,,,,,,2.3,1.3,1.9*38
$GPGSV,3,1,10,31,78,337,25,22,40,133,24,14,39,050,19,32,35,320,22*70
$GPGSV,3,2,10,01,26,289,27,25,21,053,16,11,19,262,22,20,08,317,*7E
$GPGSV,3,3,10,18,08,135,,16,08,183,*7B
$GPRMC,044605.000,A,2743.0896,N,08518.5207,E,0.00,233.88,300413,,,A*6B
$GPVTG,233.88,T,,M,0.00,N,0.0,K,A*0F
$GPGGA,044610.000,2743.0896,N,08518.5207,E,1,06,1.3,1305.5,M,-37.4,M,,0000*41
$GPGSA,A,3,31,22,25,01,14,11,,,,,,,2.3,1.3,1.9*38
$GPGSV,3,1,10,31,78,337,27,22,40,133,29,14,39,050,21,32,35,320,18*7D
$GPGSV,3,2,10,01,26,289,27,25,21,053,23,11,19,262,28,20,08,317,*72
$GPGSV,3,3,10,18,08,135,,16,08,183,*7B
$GPRMC,044610.000,A,2743.0896,N,08518.5207,E,0.00,233.88,300413,,,A*6F
$GPGGA,044615.000,2743.0896,N,08518.5207,E,1,06,1.3,1305.5,M,-37.4,M,,0000*44
$GPGSA,A,3,31,22,25,01,14,11,,,,,,,2.3,1.3,1.9*38
$GPGSV,3,1,10,31,78,337,27,22,40,133,20,14,39,050,21,32,35,320,25*7A
$GPGSV,3,2,10,01,26,289,25,25,21,053,21,11,19,262,29,20,08,317,*73
$GPGSV,3,3,10,18,08,135,,16,08,183,*7B
$GPRMC,044615.000,A,2743.0896,N,08518.5207,E,0.00,233.88,300413,,,A*6A
$GPVTG,233.88,T,,M,0.00,N,0.0,K,A*0F
$GPGGA,044620.000,2743.0896,N,08518.5207,E,1,05,1.5,1305.5,M,-37.4,M,,0000*47
$GPGSA,A,3,31,22,01,14,11,,,,,,,,2.9,1.5,2.5*3C
$GPGSV,3,1,10,31,78,337,27,22,40,133,19,14,39,050,24,32,35,320,34*75
$GPGSV,3,2,10,01,26,289,25,25,21,053,,11,19,262,28,20,08,317,20*73
$GPGSV,3,3,10,18,08,135,,16,08,183,*7B
$GPRMC,044620.000,A,2743.0896,N,08518.5207,E,0.00,233.88,300413,,,A*6C
$GPVTG,233.88,T,,M,0.00,N,0.0,K,A*0F
$GPGGA,044625.000,2743.0896,N,08518.5207,E,1,04,3.7,1305.5,M,-37.4,M,,0000*43
$GPGSA,A,3,31,01,14,11,,,,,,,,,4.5,3.7,2.6*35
$GPGSV,3,1,10,31,78,337,27,22,40,133,18,14,39,050,20,32,35,320,26*73
$GPGSV,3,2,10,01,26,289,32,25,21,053,,11,19,262,35,20,08,317,20*79
$GPGSV,3,3,10,18,08,135,,16,08,183,*7B
$GPRMC,044625.000,A,2743.0896,N,08518.5207,E,0.00,233.88,300413,,,A*69
$GPVTG,233.88,T,,M,0.00,N,0.0,K,A*0F
$GPGGA,044630.000,2743.0896,N,08518.5207,E,1,04,3.7,1305.5,M,-37.4,M,,0000*47
$GPGSA,A,3,31,01,14,11,,,,,,,,,4.5,3.7,2.6*35
$GPGSV,3,1,10,31,78,337,27,22,40,133,18,14,39,050,19,32,35,320,26*79
$GPGSV,3,2,10,01,26,289,31,25,21,053,,11,19,262,35,20,08,317,20*7A
$GPGSV,3,3,10,18,08,135,,16,08,183,*7B
$GPRMC,044630.000,A,2743.0896,N,08518.5207,E,0.00,233.88,300413,,,A*6D
$GPVTG,233.88,T,,M,0.00,N,0.0,K,A*0F
$GPGGA,044635.000,2743.0896,N,08518.5207,E,1,05,1.5,1305.5,M,-37.4,M,,0000*43
$GPGSA,A,3,31,22,01,14,11,,,,,,,,2.9,1.5,2.5*3C
$GPGSV,3,1,11,31,78,337,28,22,40,133,18,14,39,050,19,32,35,320,27*76
$GPGSV,3,2,11,01,26,289,30,25,21,053,,11,19,262,34,20,08,317,20*7B
$GPGSV,3,3,11,18,08,135,,16,08,183,,41,57,185,28*4B
$GPRMC,044635.000,A,2743.0896,N,08518.5207,E,0.00,233.88,300413,,,A*68
$GPGGA,044640.000,2743.0896,N,08518.5207,E,1,05,1.5,1305.5,M,-37.4,M,,0000*41
$GPGSA,A,3,31,22,01,14,11,,,,,,,,2.9,1.5,2.5*3C
$GPGSV,3,1,11,31,77,340,29,22,40,134,18,14,38,051,21,32,36,320,27*77
$GPGSV,3,2,11,01,26,288,29,25,21,052,,11,18,261,33,20,09,317,20*77
$GPGSV,3,3,11,16,09,183,,18,08,135,,41,57,185,29*4B
$GPRMC,044640.000,A,2743.0896,N,08518.5207,E,0.00,233.88,300413,,,A*6A
$GPVTG,233.88,T,,M,0.00,N,0.0,K,A*0F
$GPGGA,044645.000,2743.0896,N,08518.5207,E,1,05,1.5,1305.5,M,-37.4,M,,0000*44
$GPGSA,A,3,31,22,01,14,11,,,,,,,,2.9,1.5,2.5*3C
$GPGSV,3,1,11,31,77,340,29,22,40,134,18,14,38,051,21,32,36,320,27*77
$GPGSV,3,2,11,01,26,288,29,25,21,052,,11,18,261,32,20,09,317,20*76
$GPGSV,3,3,11,16,09,183,,18,08,135,,41,57,185,29*4B
$GPRMC,044645.000,A,2743.0896,N,08518.5207,E,0.00,233.88,300413,,,A*6F
$GPVTG,233.88,T,,M,0.00,N,0.0,K,A*0F
$GPGGA,044650.000,2743.0824,N,08518.5073,E,1,05,1.5,1297.1,M,-37.4,M,,0000*46
$GPGSA,A,3,31,22,01,14,11,,,,,,,,2.9,1.5,2.5*3C
$GPGSV,3,1,11,31,77,340,28,22,40,134,17,14,38,051,21,32,36,320,26*78
$GPGSV,3,2,11,01,26,288,28,25,21,052,,11,18,261,32,20,09,317,21*76
$GPGSV,3,3,11,16,09,183,,18,08,135,,41,57,185,27*45
$GPRMC,044650.000,A,2743.0824,N,08518.5073,E,2.75,176.73,300413,,,A*65
$GPVTG,176.73,T,,M,2.75,N,5.1,K,A*0D
$GPGGA,044655.000,2743.0792,N,08518.5073,E,1,04,3.7,1300.0,M,-37.4,M,,0000*4E
$GPGSA,A,3,31,01,14,11,,,,,,,,,4.5,3.7,2.5*36
$GPGSV,3,1,11,31,77,340,22,22,40,134,17,14,38,051,18,32,36,320,18*75
$GPGSV,3,2,11,01,26,288,29,25,21,052,,11,18,261,37,20,09,317,21*72
$GPGSV,3,3,11,16,09,183,,18,08,135,,41,57,185,32*41
$GPRMC,044655.000,A,2743.0792,N,08518.5073,E,0.00,176.54,300413,,,A*67
$GPVTG,176.54,T,,M,0.00,N,0.0,K,A*0C
$GPGGA,044700.000,2743.0760,N,08518.5096,E,1,04,3.7,1304.2,M,-37.4,M,,0000*4F
$GPGSA,A,3,31,01,14,11,,,,,,,,,4.5,3.7,2.5*36
$GPGSV,3,1,11,31,77,340,32,22,40,134,,14,38,051,19,32,36,320,28*70
$GPGSV,3,2,11,01,26,288,26,25,21,052,,11,18,261,31,20,09,317,15*7C
$GPGSV,3,3,11,16,09,183,,18,08,135,,41,57,185,27*45
$GPVTG,175.95,T,,M,0.00,N,0.0,K,A*02
$GPGGA,044705.000,2743.0760,N,08518.5096,E,1,04,3.7,1304.2,M,-37.4,M,,0000*4A
$GPGSA,A,3,31,01,14,11,,,,,,,,,4.5,3.7,2.5*36
$GPGSV,3,1,10,31,77,340,26,22,40,134,,14,38,051,22,32,36,320,24*70
$GPGSV,3,2,10,01,26,288,28,25,21,052,17,11,18,261,30,20,09,317,17*76
$GPGSV,3,3,10,16,09,183,,18,08,135,*7A
$GPRMC,044705.000,A,2743.0760,N,08518.5096,E,0.00,175.95,300413,,,A*6B
$GPVTG,175.95,T,,M,0.00,N,0.0,K,A*02
$GPGGA,044710.000,2743.0887,N,08518.5070,E,1,06,1.3,1303.9,M,-37.4,M,,0000*48
$GPGSA,A,3,31,25,22,01,14,11,,,,,,,2.3,1.3,1.9*38
$GPGSV,3,1,11,31,77,340,31,22,40,134,24,14,38,051,28,32,36,320,33*7D
$GPGSV,3,2,11,01,26,288,28,25,21,052,17,11,18,261,25,20,09,317,25*72
$GPGSV,3,3,11,16,09,183,,18,08,135,,41,57,185,30*43
$GPRMC,044710.000,A,2743.0887,N,08518.5070,E,4.03,338.15,300413,,,A*65
$GPVTG,338.15,T,,M,4.03,N,7.5,K,A*04
$GPGGA,044715.000,2743.0894,N,08518.5081,E,1,05,1.4,1307.0,M,-37.4,M,,0000*48
$GPGSA,A,3,31,25,22,01,14,,,,,,,,2.7,1.4,2.2*33
$GPGSV,3,1,11,31,77,340,27,22,40,134,27,14,38,051,30,32,36,320,32*71
$GPGSV,3,2,11,01,26,288,21,25,21,052,21,11,18,261,15,20,09,317,16*7D
$GPGSV,3,3,11,16,09,183,,18,08,135,,41,57,185,26*44
$GPRMC,044715.000,A,2743.0894,N,08518.5081,E,0.00,2.60,300413,,,A*63
$GPVTG,2.60,T,,M,0.00,N,0.0,K,A*09
$GPGGA,044720.000,2743.0932,N,08518.5101,E,1,06,1.3,1311.1,M,-37.4,M,,0000*48
$GPGSA,A,3,31,25,22,01,14,11,,,,,,,2.3,1.3,1.9*38
$GPGSV,3,1,11,31,77,340,28,22,40,134,32,14,38,051,16,32,36,320,31*7D
$GPGSV,3,2,11,01,26,288,21,25,21,052,18,11,18,261,20,20,09,317,19*7E
$GPGSV,3,3,11,16,09,183,21,18,08,135,,41,57,185,30*40
$GPRMC,044720.000,A,2743.0932,N,08518.5101,E,0.00,1.88,300413,,,A*64
$GPVTG,1.88,T,,M,0.00,N,0.0,K,A*0C
$GPGGA,044725.000,2743.0932,N,08518.5101,E,1,06,1.3,1311.1,M,-37.4,M,,0000*4D
$GPGSA,A,3,31,25,22,01,14,11,,,,,,,2.3,1.3,1.9*38
$GPGSV,3,1,11,31,77,340,34,22,40,134,32,14,38,051,15,32,36,320,34*76
$GPGSV,3,2,11,01,26,288,20,25,21,052,17,11,18,261,20,20,09,317,13*7A
$GPGSV,3,3,11,16,09,183,12,18,08,135,,41,57,185,32*42
$GPVTG,1.88,T,,M,0.00,N,0.0,K,A*0C
$GPGGA,044730.000,2743.1002,N,08518.5089,E,1,05,1.5,1307.7,M,-37.4,M,,0000*47
$GPGSA,A,3,25,22,01,14,11,,,,,,,,4.8,1.5,4.5*38
$GPGSV,3,1,10,31,77,341,19,22,39,134,24,14,38,052,14,32,36,320,30*76
$GPGSV,3,2,10,01,26,288,28,25,21,052,16,11,18,261,19,20,09,317,*7A
$GPGSV,3,3,10,16,09,183,,18,07,135,*75
$GPRMC,044730.000,A,2743.1002,N,08518.5089,E,2.90,334.06,300413,,,A*67
$GPVTG,334.06,T,,M,2.90,N,5.4,K,A*05
$GPGGA,044735.000,2743.1020,N,08518.5082,E,1,06,1.3,1306.4,M,-37.4,M,,0000*4E
$GPGSA,A,3,31,25,22,01,14,11,,,,,,,2.3,1.3,1.9*38
$GPGSV,3,1,10,31,77,341,14,22,39,134,16,14,38,052,15,32,36,320,20*7A
$GPGSV,3,2,10,01,26,288,19,25,21,052,16,11,18,261,15,20,09,317,*74
$GPGSV,3,3,10,16,09,183,,18,07,135,*75
$GPRMC,044735.000,A,2743.1020,N,08518.5082,E,1.83,109.54,300413,,,A*63
$GPVTG,109.54,T,,M,1.83,N,3.4,K,A*09
$GPGGA,044740.000,2743.0993,N,08518.5079,E,1,03,23.1,1304.2,M,-37.4,M,,0000*7B
$GPGSA,A,2,25,01,14,,,,,,,,,,23.2,23.1,1.0*32
$GPGSV,3,1,10,31,77,341,,22,39,134,,14,38,052,15,32,36,320,*7A
$GPGSV,3,2,10,01,26,288,17,25,21,052,17,11,18,261,,20,09,317,*7F
$GPGSV,3,3,10,16,09,183,,18,07,135,*75
$GPRMC,044740.000,A,2743.0993,N,08518.5079,E,1.16,205.03,300413,,,A*64
$GPVTG,205.03,T,,M,1.16,N,2.2,K,N*00
$GPGGA,044745.000,2743.0989,N,08518.5081,E,1,03,22.8,1304.1,M,-37.4,M,,0000*79
$GPGSA,A,2,25,01,14,,,,,,,,,,22.8,22.8,1.0*31
$GPGSV,3,1,10,31,77,341,,22,39,134,,14,38,052,15,32,36,320,*7A
$GPGSV,3,2,10,01,26,288,18,25,21,052,17,11,18,261,,20,09,317,*70
$GPGSV,3,3,10,16,09,183,,18,07,135,*75
$GPRMC,044745.000,A,2743.0989,N,08518.5081,E,0.00,205.03,300413,,,A*6B
$GPVTG,205.03,T,,M,0.00,N,0.0,K,N*06
$GPGGA,044750.000,2743.0989,N,08518.5081,E,6,00,50.0,1304.1,M,-37.4,M,,0000*74
$GPGSA,A,2,,,,,,,,,,,,,50.0,50.0,50.0*06
$GPGSV,3,1,10,31,77,341,,22,39,134,,14,38,052,,32,36,320,*7E
$GPGSV,3,2,10,01,26,288,19,25,21,052,18,11,18,261,,20,09,317,*7E
$GPGSV,3,3,10,16,09,183,,18,07,135,*75
$GPRMC,044750.000,A,2743.0989,N,08518.5081,E,0.00,205.03,300413,,,E*6B
$GPGGA,044755.000,2743.0989,N,08518.5081,E,6,00,50.0,1304.1,M,-37.4,M,,0000*71
$GPGSA,A,2,,,,,,,,,,,,,50.0,50.0,50.0*06
$GPGSV,3,1,10,31,77,341,,22,39,134,,14,38,052,,32,36,320,*7E
$GPGSV,3,2,10,01,26,288,19,25,21,052,16,11,18,261,,20,09,317,*70
$GPGSV,3,3,10,16,09,183,,18,07,135,*75
$GPRMC,044755.000,A,2743.0989,N,08518.5081,E,0.00,205.03,300413,,,E*6E
$GPVTG,205.03,T,,M,0.00,N,0.0,K,N*06
$GPGGA,044800.000,2743.0989,N,08518.5081,E,6,00,50.0,1304.1,M,-37.4,M,,0000*7E
$GPGSA,A,2,,,,,,,,,,,,,50.0,50.0,50.0*06
$GPGSV,3,1,10,31,77,341,,22,39,134,,14,38,052,,32,36,320,*7E
$GPGSV,3,2,10,01,26,288,18,25,21,052,,11,18,261,,20,09,317,*76
$GPGSV,3,3,10,16,09,183,,18,07,135,*75
$GPRMC,044800.000,A,2743.0989,N,08518.5081,E,0.00,205.03,300413,,,E*61
$GPVTG,205.03,T,,M,0.00,N,0.0,K,N*06
$GPGGA,045020.000,2743.0989,N,08518.5081,E,1,03,15.8,1304.1,M,-37.4,M,,0000*78
$GPGSA,A,2,25,01,14,,,,,,,,,,15.9,15.8,1.0*30
$GPGSV,3,1,10,31,77,341,,22,39,134,,14,38,052,19,32,36,320,*76
$GPGSV,3,2,10,01,26,288,16,25,21,052,20,11,18,261,,20,09,317,*7A
$GPGSV,3,3,10,16,09,183,,18,07,135,*75
$GPRMC,045020.000,A,2743.0989,N,08518.5081,E,0.00,205.03,300413,,,A*6E
$GPVTG,205.03,T,,M,0.00,N,0.0,K,N*06
$GPGGA,045025.000,2743.0989,N,08518.5081,E,6,00,50.0,1304.1,M,-37.4,M,,0000*70
$GPGSA,A,2,,,,,,,,,,,,,50.0,50.0,50.0*06
$GPGSV,3,1,10,31,77,341,,22,39,134,,14,38,052,19,32,36,320,*76
$GPGSV,3,2,10,01,26,288,16,25,21,052,21,11,18,261,,20,09,317,*7B
$GPGSV,3,3,10,16,09,183,,18,07,135,*75
$GPVTG,205.03,T,,M,0.00,N,0.0,K,N*06
$GPGGA,045030.000,2743.1329,N,08518.4988,E,1,03,22.6,1288.8,M,-37.4,M,,0000*7F
$GPGSA,A,2,25,14,11,,,,,,,,,,22.6,22.6,1.0*30
$GPGSV,3,1,10,31,76,346,,22,38,135,,32,38,320,,14,37,053,19*70
$GPGSV,3,2,10,01,26,286,16,25,20,051,21,11,18,260,14,20,11,317,*7A
$GPGSV,3,3,10,16,10,183,,18,06,136,*7F
$GPRMC,045030.000,A,2743.1329,N,08518.4988,E,5.88,353.15,300413,,,A*6F
$GPVTG,353.15,T,,M,5.88,N,10.9,K,A*31
$GPGGA,045035.000,2743.1301,N,08518.5016,E,1,03,15.4,1276.8,M,-37.4,M,,0000*78
$GPGSA,A,2,25,01,14,,,,,,,,,,15.4,15.4,1.0*31
$GPGSV,3,1,10,31,76,346,,22,38,135,,32,38,320,,14,37,053,19*70
$GPGSV,3,2,10,01,26,286,16,25,20,051,21,11,18,260,14,20,11,317,*7A
$GPGSV,3,3,10,16,10,183,,18,06,136,*7F
$GPRMC,045035.000,A,2743.1301,N,08518.5016,E,4.93,346.63,300413,,,A*61
$GPVTG,346.63,T,,M,4.93,N,9.1,K,A*0F
$GPGGA,045040.000,2743.1208,N,08518.5060,E,1,04,3.8,1270.2,M,-37.4,M,,0000*43
$GPGSA,A,3,25,01,14,11,,,,,,,,,6.2,3.8,4.9*33
$GPGSV,3,1,10,31,76,346,,22,38,135,,32,38,320,,14,37,053,19*70
$GPGSV,3,2,10,01,26,286,18,25,20,051,21,11,18,260,14,20,11,317,*74
$GPGSV,3,3,10,16,10,183,,18,06,136,*7F
$GPRMC,045040.000,A,2743.1208,N,08518.5060,E,3.67,164.15,300413,,,A*65
$GPVTG,164.15,T,,M,3.67,N,6.8,K,A*06
$GPGGA,045045.000,2743.1066,N,08518.5102,E,1,04,3.8,1268.4,M,-37.4,M,,0000*46
$GPGSA,A,3,25,01,14,11,,,,,,,,,6.2,3.8,4.9*33
$GPGSV,3,1,10,31,76,346,,22,38,135,,32,38,320,,14,37,053,20*7A
$GPGSV,3,2,10,01,26,286,19,25,20,051,21,11,18,260,14,20,11,317,*75
$GPGSV,3,3,10,16,10,183,,18,06,136,*7F
$GPVTG,147.53,T,,M,3.28,N,6.1,K,A*07
$GPGGA,045050.000,2743.1052,N,08518.5119,E,1,04,3.8,1268.7,M,-37.4,M,,0000*4C
$GPGSA,A,3,25,01,14,11,,,,,,,,,6.2,3.8,4.9*33
$GPGSV,3,1,10,31,76,346,,22,38,135,,32,38,320,,14,37,053,20*7A
$GPGSV,3,2,10,01,26,286,19,25,20,051,21,11,18,260,15,20,11,317,*74
$GPGSV,3,3,10,16,10,183,,18,06,136,*7F
$GPRMC,045050.000,A,2743.1052,N,08518.5119,E,1.82,142.71,300413,,,A*69
$GPVTG,142.71,T,,M,1.82,N,3.4,K,A*00
$GPGGA,045055.000,2743.1088,N,08518.5119,E,1,04,3.8,1270.2,M,-37.4,M,,0000*42
$GPGSA,A,3,25,01,14,11,,,,,,,,,6.2,3.8,4.9*33
$GPGSV,3,1,10,31,76,346,,22,38,135,,32,38,320,,14,37,053,20*7A
$GPGSV,3,2,10,01,26,286,18,25,20,051,21,11,18,260,14,20,11,317,*74
$GPGSV,3,3,10,16,10,183,,18,06,136,*7F
$GPRMC,045055.000,A,2743.1088,N,08518.5119,E,2.82,357.79,300413,,,A*66
$GPVTG,357.79,T,,M,2.82,N,5.2,K,A*0D
$GPGGA,045100.000,2743.1010,N,08518.5165,E,1,03,14.7,1261.3,M,-37.4,M,,0000*76
$GPGSA,A,2,25,01,14,,,,,,,,,,14.7,14.7,1.0*31
$GPGSV,3,1,10,31,76,346,,22,38,135,,32,38,320,,14,37,053,20*7A
$GPGSV,3,2,10,01,26,286,18,25,20,051,22,11,18,260,14,20,11,317,*77
$GPGSV,3,3,10,16,10,183,,18,06,136,*7F
$GPRMC,045100.000,A,2743.1010,N,08518.5165,E,5.55,167.29,300413,,,A*64
$GPVTG,167.29,T,,M,5.55,N,10.3,K,A*31
$GPGGA,045105.000,2743.0917,N,08518.5194,E,6,00,50.0,1256.3,M,-37.4,M,,0000*75
$GPGSA,A,2,,,,,,,,,,,,,50.0,50.0,50.0*06
$GPGSV,3,1,10,31,76,346,,22,38,135,,32,38,320,,14,37,053,15*7C
$GPGSV,3,2,10,01,26,286,,25,20,051,22,11,18,260,12,20,11,317,*78
$GPGSV,3,3,10,16,10,183,,18,06,136,*7F
$GPRMC,045105.000,A,2743.0917,N,08518.5194,E,6.91,164.60,300413,,,E*61
$GPVTG,164.60,T,,M,6.91,N,12.8,K,N*32
$GPGGA,045110.000,2743.0726,N,08518.5174,E,6,00,50.0,1255.7,M,-37.4,M,,0000*74
$GPGSA,A,2,,,,,,,,,,,,,50.0,50.0,50.0*06
$GPGSV,3,1,10,31,76,346,,22,38,135,,32,38,320,,14,37,053,17*7E
$GPGSV,3,2,10,01,26,286,,25,20,051,21,11,18,260,13,20,11,317,*7A
$GPGSV,3,3,10,16,10,183,,18,06,136,*7F
$GPRMC,045110.000,A,2743.0726,N,08518.5174,E,10.24,180.01,300413,,,E*53
$GPGGA,045115.000,2743.0657,N,08518.5267,E,1,03,19.8,1251.7,M,-37.4,M,,0000*72
$GPGSA,A,2,25,14,11,,,,,,,,,,19.8,19.8,1.0*30
$GPGSV,3,1,10,31,76,346,,22,38,135,,32,38,320,,14,37,053,18*71
$GPGSV,3,2,10,01,26,286,,25,20,051,21,11,18,260,13,20,11,317,*7A
$GPGSV,3,3,10,16,10,183,,18,06,136,*7F
$GPRMC,045115.000,A,2743.0657,N,08518.5267,E,9.18,152.22,300413,,,A*6D
$GPVTG,152.22,T,,M,9.18,N,17.0,K,N*32
$GPGGA,045120.000,2743.0885,N,08518.5171,E,1,03,19.5,1246.4,M,-37.4,M,,0000*79
$GPGSA,A,2,25,14,11,,,,,,,,,,19.5,19.5,1.0*30
$GPGSV,3,1,10,31,76,346,,22,38,135,,32,38,320,,14,37,053,18*71
$GPGSV,3,2,10,01,26,286,,25,20,051,21,11,18,260,14,20,11,317,*7D
$GPGSV,3,3,10,16,10,183,,18,06,136,*7F
$GPRMC,045120.000,A,2743.0885,N,08518.5171,E,0.00,9.55,300413,,,A*61
$GPVTG,9.55,T,,M,0.00,N,0.0,K,N*0B
$GPGGA,045125.000,2743.0979,N,08518.5165,E,1,03,19.3,1246.7,M,-37.4,M,,0000*7E
$GPGSA,A,2,25,14,11,,,,,,,,,,19.3,19.3,1.0*30
$GPGSV,3,1,10,31,76,346,,22,38,135,,32,38,320,,14,37,053,17*7E
$GPGSV,3,2,10,01,26,286,,25,20,051,22,11,18,260,13,20,11,317,*79
$GPGSV,3,3,10,16,10,183,,18,06,136,*7F
$GPRMC,045125.000,A,2743.0979,N,08518.5165,E,2.79,345.22,300413,,,A*64
$GPVTG,345.22,T,,M,2.79,N,5.2,K,N*0B
$GPGGA,045130.000,2743.1373,N,08518.4950,E,1,03,3.9,1254.9,M,-37.4,M,,0000*48
$GPGSA,A,2,25,01,11,,,,,,,,,,4.0,3.9,1.0*3A
$GPGSV,3,1,10,31,76,346,,22,38,135,,32,38,320,,14,37,053,17*7E
$GPGSV,3,2,10,01,26,286,17,25,20,051,21,11,18,260,13,20,11,317,*7C
$GPGSV,3,3,10,16,10,183,,18,06,136,*7F
$GPRMC,045130.000,A,2743.1373,N,08518.4950,E,7.48,330.50,300413,,,A*6E
$GPGGA,045135.000,2743.1443,N,08518.4911,E,1,03,18.7,1262.6,M,-37.4,M,,0000*72
$GPGSA,A,2,25,14,11,,,,,,,,,,18.8,18.7,1.0*3F
$GPGSV,3,1,10,31,76,346,,22,38,135,,32,38,320,,14,37,053,16*7F
$GPGSV,3,2,10,01,26,286,16,25,20,051,21,11,18,260,13,20,11,317,*7D
$GPGSV,3,3,10,16,10,183,,18,06,136,*7F
$GPRMC,045135.000,A,2743.1443,N,08518.4911,E,8.32,335.00,300413,,,A*68
$GPVTG,335.00,T,,M,8.32,N,15.4,K,A*31
$GPGGA,045140.000,2743.1555,N,08518.4863,E,6,00,50.0,1265.5,M,-37.4,M,,0000*79
$GPGSA,A,2,,,,,,,,,,,,,50.0,50.0,50.0*06
$GPGSV,3,1,10,31,76,346,,22,38,135,,32,38,320,,14,37,053,15*7C
$GPGSV,3,2,10,01,26,286,16,25,20,051,21,11,18,260,,20,11,317,*7F
$GPGSV,3,3,10,16,10,183,,18,06,136,*7F
$GPRMC,045140.000,A,2743.1555,N,08518.4863,E,8.52,334.35,300413,,,E*6D
$GPVTG,334.35,T,,M,8.52,N,15.8,K,N*33
$GPGGA,045145.000,2743.1662,N,08518.4805,E,6,00,50.0,1266.6,M,-37.4,M,,0000*7B
$GPGSA,A,2,,,,,,,,,,,,,50.0,50.0,50.0*06
$GPGSV,3,1,10,31,76,346,,22,38,135,,32,38,320,,14,37,053,16*7F
$GPGSV,3,2,10,01,26,286,15,25,20,051,21,11,18,260,,20,11,317,*7C
$GPGSV,3,3,10,16,10,183,,18,06,136,*7F
$GPRMC,045145.000,A,2743.1662,N,08518.4805,E,8.52,334.35,300413,,,E*6F
$GPVTG,334.35,T,,M,8.52,N,15.8,K,N*33
$GPGGA,045150.000,2743.1769,N,08518.4747,E,6,00,50.0,1267.8,M,-37.4,M,,0000*73
$GPGSA,A,2,,,,,,,,,,,,,50.0,50.0,50.0*06
$GPGSV,3,1,10,31,76,346,,22,38,135,,32,38,320,,14,37,053,16*7F
$GPGSV,3,2,10,01,26,286,15,25,20,051,21,11,18,260,,20,11,317,*7C
$GPGSV,3,3,10,16,10,183,,18,06,136,*7F
$GPRMC,045150.000,A,2743.1769,N,08518.4747,E,8.52,334.35,300413,,,E*68
$GPVTG,334.35,T,,M,8.52,N,15.8,K,N*33
$GPGGA,045155.000,2743.1604,N,08518.4934,E,1,03,13.3,1271.0,M,-37.4,M,,0000*79
$GPGSA,A,2,25,01,14,,,,,,,,,,13.4,13.3,1.0*36
$GPGSV,3,1,10,31,76,346,,22,38,135,,32,38,320,,14,37,053,15*7C
$GPGSV,3,2,10,01,26,286,16,25,20,051,21,11,18,260,,20,11,317,*7F
$GPGSV,3,3,10,16,10,183,,18,06,136,*7F
$GPRMC,045155.000,A,2743.1604,N,08518.4934,E,3.14,316.22,300413,,,A*66
$GPGGA,045200.000,2743.1488,N,08518.4942,E,1,03,13.2,1274.2,M,-37.4,M,,0000*7B
$GPGSA,A,2,25,01,14,,,,,,,,,,13.2,13.2,1.0*31
$GPGSV,3,1,10,31,76,346,,22,38,135,,32,38,320,,14,37,053,15*7C
$GPGSV,3,2,10,01,26,286,15,25,20,051,21,11,18,260,,20,11,317,*7C
$GPGSV,3,3,10,16,10,183,,18,06,136,*7F
$GPRMC,045200.000,A,2743.1488,N,08518.4942,E,0.00,188.08,300413,,,A*69
$GPVTG,188.08,T,,M,0.00,N,0.0,K,N*0B
$GPGGA,045205.000,2743.1262,N,08518.4998,E,1,03,13.1,1276.3,M,-37.4,M,,0000*7B
$GPGSA,A,2,25,01,14,,,,,,,,,,13.1,13.1,1.0*31
$GPGSV,3,1,10,31,76,346,,22,38,135,,32,38,320,,14,37,053,15*7C
$GPGSV,3,2,10,01,26,286,15,25,20,051,21,11,18,260,,20,11,317,*7C
$GPGSV,3,3,10,16,10,183,,18,06,136,*7F
$GPRMC,045205.000,A,2743.1262,N,08518.4998,E,5.65,163.70,300413,,,A*65
$GPVTG,163.70,T,,M,5.65,N,10.5,K,N*33
$GPGGA,045210.000,2743.1156,N,08518.5031,E,6,00,50.0,1277.2,M,-37.4,M,,0000*72
$GPGSA,A,2,,,,,,,,,,,,,50.0,50.0,50.0*06
$GPGSV,3,1,10,31,76,346,,22,38,135,,32,38,320,,14,37,053,14*7D
$GPGSV,3,2,10,01,26,286,15,25,20,051,21,11,18,260,,20,11,317,*7C
$GPGSV,3,3,10,16,10,183,,18,06,136,*7F
$GPRMC,045210.000,A,2743.1156,N,08518.5031,E,7.14,162.40,300413,,,E*6C
$GPVTG,162.40,T,,M,7.14,N,13.2,K,N*31
$GPGGA,045215.000,2743.0735,N,08518.5190,E,1,03,12.9,1278.7,M,-37.4,M,,0000*7E
$GPGSA,A,2,25,01,14,,,,,,,,,,12.9,12.9,1.0*31
$GPGSV,3,1,10,31,76,346,,22,38,135,,32,38,320,,14,37,053,13*7A
$GPGSV,3,2,10,01,26,286,15,25,20,051,20,11,18,260,,20,11,317,*7D
$GPGSV,3,3,10,16,10,183,,18,06,136,*7F
$GPRMC,045215.000,A,2743.0735,N,08518.5190,E,16.57,163.43,300413,,,A*50
$GPGGA,045220.000,2743.0281,N,08518.5322,E,6,00,50.0,1279.8,M,-37.4,M,,0000*7C
$GPGSA,A,2,,,,,,,,,,,,,50.0,50.0,50.0*06
$GPGSV,3,1,10,31,76,346,,22,38,135,,32,38,320,,14,37,053,*78
$GPGSV,3,2,10,01,26,286,15,25,20,051,20,11,18,260,,20,11,317,*7D
$GPGSV,3,3,10,16,10,183,,18,06,136,*7F
$GPRMC,045220.000,A,2743.0281,N,08518.5322,E,22.14,162.20,300413,,,E*57
$GPVTG,162.20,T,,M,22.14,N,41.0,K,N*05
$GPGGA,045225.000,2742.9988,N,08518.5428,E,6,00,50.0,1281.1,M,-37.4,M,,0000*70
$GPGSA,A,2,,,,,,,,,,,,,50.0,50.0,50.0*06
$GPGSV,3,1,10,31,76,346,,22,38,135,,32,38,320,,14,37,053,*78
$GPGSV,3,2,10,01,26,286,15,25,20,051,21,11,18,260,,20,11,317,*7C
$GPGSV,3,3,10,16,10,183,,18,06,136,*7F
$GPRMC,045225.000,A,2742.9988,N,08518.5428,E,22.14,162.20,300413,,,E*55
$GPVTG,162.20,T,,M,22.14,N,41.0,K,N*05
$GPGGA,045230.000,2742.9694,N,08518.5533,E,6,00,50.0,1282.5,M,-37.4,M,,0000*7A
$GPGSA,A,2,,,,,,,,,,,,,50.0,50.0,50.0*06
$GPGSV,3,1,10,31,76,346,,22,38,135,,32,38,320,,14,37,053,*78
$GPGSV,3,2,10,01,26,286,16,25,20,051,21,11,18,260,,20,11,317,*7F
$GPGSV,3,3,10,16,10,183,,18,06,136,*7F
$GPRMC,045230.000,A,2742.9694,N,08518.5533,E,22.14,162.20,300413,,,E*58
$GPVTG,162.20,T,,M,22.14,N,41.0,K,N*05
$GPGGA,045455.000,2743.0860,N,08518.5230,E,1,03,10.2,1280.9,M,-37.4,M,,0000*7A
$GPGSA,A,2,01,25,14,,,,,,,,,,10.3,10.2,1.0*30
$GPGSV,3,1,10,31,75,350,,32,39,320,22,14,37,055,22,22,37,136,*77
$GPGSV,3,2,10,01,26,285,17,25,20,050,19,11,17,258,,20,12,317,*70
$GPGSV,3,3,10,16,12,182,,18,05,137,*7E
$GPVTG,347.99,T,,M,19.64,N,36.4,K,N*09
$GPGGA,045500.000,2743.1333,N,08518.5055,E,6,00,50.0,1287.5,M,-37.4,M,,0000*7F
$GPGSA,A,2,,,,,,,,,,,,,50.0,50.0,50.0*06
$GPGSV,3,1,10,31,75,350,,32,39,320,22,14,37,055,21,22,37,136,*74
$GPGSV,3,2,10,01,26,285,,25,20,050,20,11,17,258,,20,12,317,*7C
$GPGSV,3,3,10,16,12,182,,18,05,137,*7E
$GPRMC,045500.000,A,2743.1333,N,08518.5055,E,19.06,338.25,300413,,,E*5B
$GPVTG,338.25,T,,M,19.06,N,35.3,K,N*06
$GPGGA,045505.000,2743.1579,N,08518.4944,E,6,00,50.0,1287.8,M,-37.4,M,,0000*77
$GPGSA,A,2,,,,,,,,,,,,,50.0,50.0,50.0*06
$GPGSV,3,1,10,31,75,350,,32,39,320,17,14,37,055,10,22,37,136,*70
$GPGSV,3,2,10,01,26,285,,25,20,050,,11,17,258,,20,12,317,*7E
$GPGSV,3,3,10,16,12,182,,18,05,137,*7E
$GPRMC,045505.000,A,2743.1579,N,08518.4944,E,19.06,338.25,300413,,,E*5E
$GPVTG,338.25,T,,M,19.06,N,35.3,K,N*06
$GPGGA,045510.000,2743.1826,N,08518.4834,E,6,00,50.0,1288.1,M,-37.4,M,,0000*74
$GPGSA,A,2,,,,,,,,,,,,,50.0,50.0,50.0*06
$GPGSV,3,1,10,31,75,350,,32,39,320,17,14,37,055,14,22,37,136,*74
$GPGSV,3,2,10,01,26,285,19,25,20,050,,11,17,258,,20,12,317,*76
$GPGSV,3,3,10,16,12,182,,18,05,137,*7E
$GPRMC,045510.000,A,2743.1826,N,08518.4834,E,19.06,338.25,300413,,,E*5B
$GPVTG,338.25,T,,M,19.06,N,35.3,K,N*06
$GPGGA,045525.000,2743.1028,N,08518.5080,E,1,03,8.4,1293.0,M,-37.4,M,,0000*44
$GPGSA,A,2,01,31,25,,,,,,,,,,8.5,8.4,1.0*37
$GPGSV,3,1,10,31,75,350,15,32,39,320,,14,37,055,,22,37,136,*73
$GPGSV,3,2,10,01,26,285,20,25,20,050,18,11,17,258,,20,12,317,*75
$GPGSV,3,3,10,16,12,182,,18,05,137,*7E
$GPRMC,045525.000,A,2743.1028,N,08518.5080,E,9.81,175.33,300413,,,A*6B
$GPVTG,175.33,T,,M,9.81,N,18.2,K,N*3A
$GPGGA,045530.000,2743.0993,N,08518.5098,E,6,00,50.0,1296.6,M,-37.4,M,,0000*7F
$GPGSA,A,2,,,,,,,,,,,,,50.0,50.0,50.0*06
$GPGSV,3,1,10,31,75,350,,32,39,320,,14,37,055,,22,37,136,*77
$GPGSV,3,2,10,01,26,285,19,25,20,050,17,11,17,258,,20,12,317,*70
$GPGSV,3,3,10,16,12,182,,18,05,137,*7E
$GPRMC,045530.000,A,2743.0993,N,08518.5098,E,9.30,167.51,300413,,,E*67
$GPGGA,045535.000,2743.0867,N,08518.5129,E,6,00,50.0,1297.7,M,-37.4,M,,0000*7B
$GPGSA,A,2,,,,,,,,,,,,,50.0,50.0,50.0*06
$GPGSV,3,1,10,31,75,350,,32,39,320,,14,37,055,,22,37,136,*77
$GPGSV,3,2,10,01,26,285,19,25,20,050,17,11,17,258,,20,12,317,*70
$GPGSV,3,3,10,16,12,182,,18,05,137,*7E
$GPRMC,045535.000,A,2743.0867,N,08518.5129,E,9.30,167.51,300413,,,E*63
$GPVTG,167.51,T,,M,9.30,N,17.2,K,N*38
$GPGGA,045540.000,2743.0741,N,08518.5161,E,6,00,50.0,1298.7,M,-37.4,M,,0000*71
$GPGSA,A,2,,,,,,,,,,,,,50.0,50.0,50.0*06
$GPGSV,3,1,10,31,75,350,,32,39,320,,14,37,055,,22,37,136,*77
$GPGSV,3,2,10,01,26,285,18,25,20,050,,11,17,258,,20,12,317,*77
$GPGSV,3,3,10,16,12,182,,18,05,137,*7E
$GPRMC,045540.000,A,2743.0741,N,08518.5161,E,9.30,167.51,300413,,,E*66
$GPVTG,167.51,T,,M,9.30,N,17.2,K,N*38
$GPGGA,045550.000,2743.0576,N,08518.5166,E,1,04,7.4,1270.5,M,-37.4,M,,0000*40
$GPGSA,A,3,01,14,25,31,,,,,,,,,7.4,7.4,1.0*32
$GPGSV,3,1,10,31,75,350,15,32,39,320,,14,37,055,16,22,37,136,*74
$GPGSV,3,2,10,01,26,285,25,25,20,050,17,11,17,258,,20,12,317,*7F
$GPGSV,3,3,10,16,12,182,,18,05,137,*7E
$GPRMC,045550.000,A,2743.0576,N,08518.5166,E,3.46,292.08,300413,,,A*6C
$GPVTG,292.08,T,,M,3.46,N,6.4,K,A*0F
$GPGGA,045555.000,2743.0976,N,08518.5052,E,1,05,1.3,1281.4,M,-37.4,M,,0000*40
$GPGSA,A,3,01,14,25,31,22,,,,,,,,2.5,1.3,2.2*36
$GPGSV,3,1,10,31,75,350,24,32,39,320,24,14,37,055,18,22,37,136,22*7E
$GPGSV,3,2,10,01,26,285,28,25,20,050,18,11,17,258,,20,12,317,*7D
$GPGSV,3,3,10,16,12,182,,18,05,137,*7E
$GPRMC,045555.000,A,2743.0976,N,08518.5052,E,5.51,351.00,300413,,,A*65
$GPGGA,045600.000,2743.1097,N,08518.5063,E,1,04,1.6,1293.0,M,-37.4,M,,0000*45
$GPGSA,A,3,01,14,31,22,,,,,,,,,3.2,1.6,2.8*38
$GPGSV,3,1,10,31,75,350,29,32,39,320,31,14,37,055,24,22,37,136,13*7A
$GPGSV,3,2,10,01,26,285,29,25,20,050,,11,17,258,19,20,12,317,*7D
$GPGSV,3,3,10,16,12,182,,18,05,137,*7E
$GPRMC,045600.000,A,2743.1097,N,08518.5063,E,5.32,6.87,300413,,,A*68
$GPVTG,6.87,T,,M,5.32,N,9.9,K,A*00
$GPGGA,045605.000,2743.1179,N,08518.5088,E,1,05,3.6,1291.5,M,-37.4,M,,0000*40
$GPGSA,A,3,01,14,25,31,11,,,,,,,,4.1,3.6,1.9*3B
$GPGSV,3,1,10,31,75,350,26,32,39,320,22,14,37,055,24,22,37,136,17*73
$GPGSV,3,2,10,01,26,285,18,25,20,050,21,11,17,258,23,20,12,317,*75
$GPGSV,3,3,10,16,12,182,,18,05,137,*7E
$GPRMC,045605.000,A,2743.1179,N,08518.5088,E,2.63,8.93,300413,,,A*61
$GPVTG,8.93,T,,M,2.63,N,4.9,K,A*05
$GPGGA,045610.000,2743.1100,N,08518.5105,E,1,06,1.2,1294.7,M,-37.4,M,,0000*4C
$GPGSA,A,3,01,14,25,31,22,11,,,,,,,2.3,1.2,1.9*39
$GPGSV,3,1,11,31,75,350,13,32,39,320,12,14,37,055,17,22,37,136,23*70
$GPGSV,3,2,11,01,26,285,12,25,20,050,16,11,17,258,16,20,12,317,*7C
$GPGSV,3,3,11,16,12,182,,18,05,137,,41,57,185,25*43
$GPRMC,045610.000,A,2743.1100,N,08518.5105,E,4.85,171.70,300413,,,A*63
$GPVTG,171.70,T,,M,4.85,N,9.0,K,A*0D
$GPGGA,045615.000,2743.1000,N,08518.5088,E,6,00,50.0,1296.7,M,-37.4,M,,0000*79
$GPGSA,A,2,,,,,,,,,,,,,50.0,50.0,50.0*06
$GPGSV,3,1,10,31,75,350,,32,39,320,,14,37,055,14,22,37,136,13*70
$GPGSV,3,2,10,01,26,285,,25,20,050,,11,17,258,14,20,12,317,*7B
$GPGSV,3,3,10,16,12,182,,18,05,137,*7E
$GPRMC,045615.000,A,2743.1000,N,08518.5088,E,5.63,211.40,300413,,,E*68
$GPVTG,211.40,T,,M,5.63,N,10.4,K,N*31
$GPGGA,045620.000,2743.0933,N,08518.5042,E,6,00,50.0,1298.7,M,-37.4,M,,0000*7F
$GPGSA,A,2,,,,,,,,,,,,,50.0,50.0,50.0*06
$GPGSV,3,1,10,31,75,350,,32,39,320,,14,37,055,,22,37,136,*77
$GPGSV,3,2,10,01,26,285,,25,20,050,,11,17,258,,20,12,317,*7E
$GPGSV,3,3,10,16,12,182,,18,05,137,*7E
$GPRMC,045620.000,A,2743.0933,N,08518.5042,E,5.63,211.40,300413,,,E*60
$GPGGA,045625.000,2743.0866,N,08518.4996,E,6,00,50.0,1300.7,M,-37.4,M,,0000*7A
$GPGSA,A,2,,,,,,,,,,,,,50.0,50.0,50.0*06
$GPGSV,3,1,10,31,75,350,,32,39,320,,14,37,055,,22,37,136,*77
$GPGSV,3,2,10,01,26,285,,25,20,050,,11,17,258,,20,12,317,*7E
$GPGSV,3,3,10,16,12,182,,18,05,137,*7E
$GPRMC,045625.000,A,2743.0866,N,08518.4996,E,5.63,211.40,300413,,,E*65
$GPVTG,211.40,T,,M,5.63,N,10.4,K,N*31
$GPGGA,045800.000,2743.0960,N,08518.5006,E,1,03,2.9,1328.4,M,-37.4,M,,0000*46
$GPGSA,A,2,22,01,31,,,,,,,,,,3.0,2.9,1.0*39
$GPGSV,3,1,10,31,74,353,23,32,40,320,,14,36,056,,22,35,137,22*7B
$GPGSV,3,2,10,01,26,283,22,25,19,048,,11,17,257,,20,13,317,*75
$GPGSV,3,3,10,16,13,182,,18,04,137,*7E
$GPRMC,045800.000,A,2743.0960,N,08518.5006,E,2.88,1.78,300413,,,A*64
$GPVTG,1.78,T,,M,2.88,N,5.3,K,N*08
$GPGGA,045805.000,2743.1571,N,08518.5485,E,1,04,2.0,1177.3,M,-37.4,M,,0000*40
$GPGSA,A,3,22,01,31,11,,,,,,,,,2.2,2.0,1.0*32
$GPGSV,3,1,10,31,74,353,26,32,40,320,,14,36,056,21,22,35,137,21*7E
$GPGSV,3,2,10,01,26,283,25,25,19,048,,11,17,257,28,20,13,317,*78
$GPGSV,3,3,10,16,13,182,,18,04,137,*7E
$GPRMC,045805.000,A,2743.1571,N,08518.5485,E,2.10,12.92,300413,,,A*54
$GPVTG,12.92,T,,M,2.10,N,3.9,K,A*3C
$GPGGA,045810.000,2743.1739,N,08518.5603,E,1,03,2.9,1141.6,M,-37.4,M,,0000*48
$GPGSA,A,2,22,01,31,,,,,,,,,,3.0,2.9,1.0*39
$GPGSV,3,1,10,31,74,353,26,32,40,320,30,14,36,056,20,22,35,137,15*7B
$GPGSV,3,2,10,01,26,283,21,25,19,048,17,11,17,257,12,20,13,317,*73
$GPGSV,3,3,10,16,13,182,,18,04,137,*7E
$GPRMC,045810.000,A,2743.1739,N,08518.5603,E,0.72,131.26,300413,,,A*6B
$GPGGA,045815.000,2743.1743,N,08518.5599,E,1,04,2.0,1140.4,M,-37.4,M,,0000*4D
$GPGSA,A,3,22,01,31,11,,,,,,,,,2.2,2.0,1.0*32
$GPGSV,3,1,10,31,74,353,29,32,40,320,25,14,36,056,20,22,35,137,17*72
$GPGSV,3,2,10,01,26,283,20,25,19,048,16,11,17,257,13,20,13,317,*72
$GPGSV,3,3,10,16,13,182,,18,04,137,*7E
$GPRMC,045815.000,A,2743.1743,N,08518.5599,E,0.00,131.26,300413,,,A*66
$GPVTG,131.26,T,,M,0.00,N,0.0,K,A*0A
$GPGGA,045820.000,2743.1743,N,08518.5599,E,1,04,1.6,1140.4,M,-37.4,M,,0000*4E
$GPGSA,A,3,22,01,14,31,,,,,,,,,3.2,1.6,2.8*38
$GPGSV,3,1,10,31,74,353,26,32,40,320,20,14,36,056,22,22,35,137,18*75
$GPGSV,3,2,10,01,26,283,20,25,19,048,,11,17,257,,20,13,317,*77
$GPGSV,3,3,10,16,13,182,,18,04,137,*7E
$GPRMC,045820.000,A,2743.1743,N,08518.5599,E,0.00,131.26,300413,,,A*60
$GPVTG,131.26,T,,M,0.00,N,0.0,K,A*0A
$GPGGA,045825.000,2743.1743,N,08518.5599,E,1,04,1.6,1140.4,M,-37.4,M,,0000*4B
$GPGSA,A,3,22,01,14,31,,,,,,,,,3.2,1.6,2.8*38
$GPGSV,3,1,10,31,74,353,19,32,40,320,18,14,36,056,28,22,35,137,18*78
$GPGSV,3,2,10,01,26,283,25,25,19,048,,11,17,257,,20,13,317,*72
$GPGSV,3,3,10,16,13,182,,18,04,137,*7E
$GPRMC,045825.000,A,2743.1743,N,08518.5599,E,0.00,131.26,300413,,,A*65
$GPVTG,131.26,T,,M,0.00,N,0.0,K,A*0A
$GPGGA,045830.000,2743.1357,N,08518.5202,E,6,00,50.0,1253.2,M,-37.4,M,,0000*7D
$GPGSA,A,2,,,,,,,,,,,,,50.0,50.0,50.0*06
$GPGSV,3,1,10,31,74,353,17,32,40,320,10,14,36,056,,22,35,137,*7D
$GPGSV,3,2,10,01,26,283,13,25,19,048,,11,17,257,,20,13,317,*77
$GPGSV,3,3,10,16,13,182,,18,04,137,*7E
$GPRMC,045830.000,A,2743.1357,N,08518.5202,E,4.24,331.58,300413,,,E*68
$GPVTG,331.58,T,,M,4.24,N,7.8,K,N*03
$GPGGA,045835.000,2743.1409,N,08518.5171,E,6,00,50.0,1253.3,M,-37.4,M,,0000*72
$GPGSA,A,2,,,,,,,,,,,,,50.0,50.0,50.0*06
$GPGSV,3,1,10,31,74,353,,32,40,320,,14,36,056,,22,35,137,*7A
$GPGSV,3,2,10,01,26,283,,25,19,048,,11,17,257,,20,13,317,*75
$GPGSV,3,3,10,16,13,182,,18,04,137,*7E
$GPRMC,045835.000,A,2743.1409,N,08518.5171,E,4.24,331.58,300413,,,E*66
$GPGGA,045840.000,2743.1461,N,08518.5139,E,6,00,50.0,1253.4,M,-37.4,M,,0000*75
$GPGSA,A,2,,,,,,,,,,,,,50.0,50.0,50.0*06
$GPGSV,3,1,10,31,74,353,,32,40,320,,14,36,056,17,22,35,137,*7C
$GPGSV,3,2,10,01,26,283,,25,19,048,,11,17,257,,20,13,317,*75
$GPGSV,3,3,10,16,13,182,,18,04,137,*7E
$GPRMC,045840.000,A,2743.1461,N,08518.5139,E,4.24,331.58,300413,,,E*66
$GPVTG,331.58,T,,M,4.24,N,7.8,K,N*03
$GPGGA,045855.000,2743.1111,N,08518.4971,E,1,03,1.6,1255.8,M,-37.4,M,,0000*4A
$GPGSA,A,2,14,22,11,,,,,,,,,,1.9,1.6,1.0*38
$GPGSV,3,1,10,31,74,353,,32,40,320,,14,36,056,16,22,35,137,19*75
$GPGSV,3,2,10,01,26,283,,25,19,048,,11,17,257,14,20,13,317,*70
$GPGSV,3,3,10,16,13,182,,18,04,137,*7E
$GPRMC,045855.000,A,2743.1111,N,08518.4971,E,3.29,203.58,300413,,,A*6B
$GPVTG,203.58,T,,M,3.29,N,6.1,K,N*01
$GPGGA,045900.000,2743.1016,N,08518.4940,E,6,00,50.0,1257.0,M,-37.4,M,,0000*73
$GPGSA,A,2,,,,,,,,,,,,,50.0,50.0,50.0*06
$GPGSV,3,1,10,31,74,353,,32,40,320,,14,36,056,,22,35,137,20*78
$GPGSV,3,2,10,01,26,283,,25,19,048,,11,17,257,14,20,13,317,*70
$GPGSV,3,3,10,16,13,182,,18,04,137,*7E
$GPRMC,045900.000,A,2743.1016,N,08518.4940,E,5.67,197.03,300413,,,E*66
$GPVTG,197.03,T,,M,5.67,N,10.5,K,N*3E
$GPGGA,045905.000,2743.0941,N,08518.4914,E,6,00,50.0,1257.1,M,-37.4,M,,0000*7C
$GPGSA,A,2,,,,,,,,,,,,,50.0,50.0,50.0*06
$GPGSV,3,1,10,31,74,353,,32,40,320,,14,36,056,,22,35,137,21*79
$GPGSV,3,2,10,01,26,283,,25,19,048,,11,17,257,14,20,13,317,*70
$GPGSV,3,3,10,16,13,182,,18,04,137,*7E
$GPRMC,045905.000,A,2743.0941,N,08518.4914,E,5.67,197.03,300413,,,E*68
$GPGGA,045910.000,2743.0865,N,08518.4888,E,6,00,50.0,1257.2,M,-37.4,M,,0000*78
$GPGSA,A,2,,,,,,,,,,,,,50.0,50.0,50.0*06
$GPGSV,3,1,10,31,74,353,,32,40,320,,14,36,056,,22,35,137,20*78
$GPGSV,3,2,10,01,26,283,,25,19,048,,11,17,257,13,20,13,317,*77
$GPGSV,3,3,10,16,13,182,,18,04,137,*7E
$GPRMC,045910.000,A,2743.0865,N,08518.4888,E,5.67,197.03,300413,,,E*6F
$GPVTG,197.03,T,,M,5.67,N,10.5,K,N*3E
$GPGGA,045925.000,2743.0933,N,08518.4960,E,1,03,39.0,1270.9,M,-37.4,M,,0000*7E
$GPGSA,A,2,31,01,14,,,,,,,,,,39.1,39.0,1.0*35
$GPGSV,3,1,10,31,74,353,17,32,40,320,,14,36,056,19,22,35,137,*74
$GPGSV,3,2,10,01,26,283,16,25,19,048,,11,17,257,14,20,13,317,*77
$GPGSV,3,3,10,16,13,182,,18,04,137,*7E
$GPRMC,045925.000,A,2743.0933,N,08518.4960,E,1.20,68.12,300413,,,A*5E
$GPVTG,68.12,T,,M,1.20,N,2.2,K,A*33
$GPGGA,045930.000,2743.0808,N,08518.5058,E,6,00,50.0,1266.4,M,-37.4,M,,0000*71
$GPGSA,A,2,,,,,,,,,,,,,50.0,50.0,50.0*06
$GPGSV,3,1,10,31,72,356,16,32,41,320,,14,36,058,18,22,34,138,*76
$GPGSV,3,2,10,01,26,281,,25,18,047,,11,17,256,14,20,14,317,*7A
$GPGSV,3,3,10,16,14,181,,18,03,138,*72
$GPRMC,045930.000,A,2743.0808,N,08518.5058,E,4.05,142.79,300413,,,E*62
$GPVTG,142.79,T,,M,4.05,N,7.5,K,N*08
$GPGGA,045935.000,2743.1499,N,08518.4926,E,6,00,50.0,1277.8,M,-37.4,M,,0000*7C
$GPGSA,A,2,,,,,,,,,,,,,50.0,50.0,50.0*06
$GPGSV,3,1,10,31,72,356,16,32,41,320,,14,36,058,20,22,34,138,*7D
$GPGSV,3,2,10,01,26,281,,25,18,047,,11,17,256,,20,14,317,*7F
$GPGSV,3,3,10,16,14,181,,18,03,138,*72
$GPRMC,045935.000,A,2743.1499,N,08518.4926,E,0.00,57.08,300413,,,E*51
$GPGGA,045940.000,2743.1499,N,08518.4926,E,1,03,2.4,1277.8,M,-37.4,M,,0000*49
$GPGSA,A,2,31,22,14,,,,,,,,,,2.6,2.4,1.0*37
$GPGSV,3,1,10,31,72,356,16,32,41,320,,14,36,058,20,22,34,138,21*7E
$GPGSV,3,2,10,01,26,281,,25,18,047,,11,17,256,,20,14,317,*7F
$GPGSV,3,3,10,16,14,181,,18,03,138,*72
$GPRMC,045940.000,A,2743.1499,N,08518.4926,E,0.00,57.08,300413,,,A*57
$GPVTG,57.08,T,,M,0.00,N,0.0,K,N*38
$GPGGA,045945.000,2743.1499,N,08518.4926,E,6,00,50.0,1277.8,M,-37.4,M,,0000*7B
$GPGSA,A,2,,,,,,,,,,,,,50.0,50.0,50.0*06
$GPGSV,3,1,10,31,72,356,16,32,41,320,,14,36,058,17,22,34,138,08*71
$GPGSV,3,2,10,01,26,281,,25,18,047,,11,17,256,,20,14,317,*7F
$GPGSV,3,3,10,16,14,181,,18,03,138,*72
$GPRMC,045945.000,A,2743.1499,N,08518.4926,E,0.00,57.08,300413,,,E*56
$GPVTG,57.08,T,,M,0.00,N,0.0,K,N*38
$GPGGA,045950.000,2743.1024,N,08518.5058,E,1,03,2.4,1284.5,M,-37.4,M,,0000*4A
$GPGSA,A,2,31,22,14,,,,,,,,,,2.6,2.4,1.0*37
$GPGSV,3,1,10,31,72,356,14,32,41,320,,14,36,058,16,22,34,138,12*79
$GPGSV,3,2,10,01,26,281,,25,18,047,,11,17,256,,20,14,317,*7F
$GPGSV,3,3,10,16,14,181,,18,03,138,*72
$GPRMC,045950.000,A,2743.1024,N,08518.5058,E,2.41,133.49,300413,,,A*64
$GPVTG,133.49,T,,M,2.41,N,4.5,K,N*08
$GPGGA,045955.000,2743.1001,N,08518.5085,E,6,00,50.0,1284.9,M,-37.4,M,,0000*73
$GPGSA,A,2,,,,,,,,,,,,,50.0,50.0,50.0*06
$GPGSV,3,1,10,31,72,356,,32,41,320,,14,36,058,16,22,34,138,11*7F
$GPGSV,3,2,10,01,26,281,,25,18,047,,11,17,256,,20,14,317,*7F
$GPGSV,3,3,10,16,14,181,,18,03,138,*72
$GPVTG,133.49,T,,M,2.41,N,4.5,K,N*08
$GPGGA,050000.000,2743.0978,N,08518.5113,E,6,00,50.0,1285.4,M,-37.4,M,,0000*7A
$GPGSA,A,2,,,,,,,,,,,,,50.0,50.0,50.0*06
$GPGSV,3,1,10,31,72,356,,32,41,320,,14,36,058,15,22,34,138,*7C
$GPGSV,3,2,10,01,26,281,,25,18,047,,11,17,256,,20,14,317,*7F
$GPGSV,3,3,10,16,14,181,,18,03,138,*72
$GPRMC,050000.000,A,2743.0978,N,08518.5113,E,2.41,133.49,300413,,,E*67
$GPVTG,133.49,T,,M,2.41,N,4.5,K,N*08
$GPGGA,050035.000,2743.0212,N,08518.5146,E,1,03,50.0,1326.3,M,-37.4,M,,0000*70
$GPGSA,A,2,31,14,01,,,,,,,,,,50.0,50.0,1.0*34
$GPGSV,3,1,10,31,72,356,16,32,41,320,,14,36,058,19,22,34,138,*77
$GPGSV,3,2,10,01,26,281,17,25,18,047,,11,17,256,,20,14,317,*79
$GPGSV,3,3,10,16,14,181,,18,03,138,*72
$GPRMC,050035.000,A,2743.0212,N,08518.5146,E,9.32,165.96,300413,,,A*6C
$GPVTG,165.96,T,,M,9.32,N,17.3,K,N*32
$GPGGA,050040.000,2742.9693,N,08518.5346,E,1,03,50.0,1338.6,M,-37.4,M,,0000*7F
$GPGSA,A,2,31,14,01,,,,,,,,,,50.0,50.0,1.0*34
$GPGSV,3,1,10,31,72,356,17,32,41,320,,14,36,058,17,22,34,138,*78
$GPGSV,3,2,10,01,26,281,16,25,18,047,,11,17,256,,20,14,317,*78
$GPGSV,3,3,10,16,14,181,,18,03,138,*72
$GPRMC,050040.000,A,2742.9693,N,08518.5346,E,12.99,163.71,300413,,,A*5D
$GPVTG,163.71,T,,M,12.99,N,24.1,K,N*04
$GPGGA,050045.000,2742.9619,N,08518.5386,E,6,00,50.0,1337.6,M,-37.4,M,,0000*7F
$GPGSA,A,2,,,,,,,,,,,,,50.0,50.0,50.0*06
$GPGSV,3,1,10,31,72,356,17,32,41,320,,14,36,058,17,22,34,138,*78
$GPGSV,3,2,10,01,26,281,16,25,18,047,,11,17,256,,20,14,317,*78
$GPGSV,3,3,10,16,14,181,,18,03,138,*72
$GPRMC,050045.000,A,2742.9619,N,08518.5386,E,11.23,163.21,300413,,,E*55
$GPVTG,163.21,T,,M,11.23,N,20.8,K,N*0E
$GPGGA,050050.000,2742.9524,N,08518.5342,E,1,03,50.0,1336.9,M,-37.4,M,,0000*74
$GPGSA,A,2,31,14,01,,,,,,,,,,50.0,50.0,1.0*34
$GPGSV,3,1,10,31,72,356,17,32,41,320,,14,36,058,17,22,34,138,*78
$GPGSV,3,2,10,01,26,281,16,25,18,047,,11,17,256,,20,14,317,*78
$GPGSV,3,3,10,16,14,181,,18,03,138,*72
$GPRMC,050050.000,A,2742.9524,N,08518.5342,E,10.36,157.82,300413,,,A*5B
$GPGGA,050055.000,2742.9460,N,08518.5360,E,6,00,50.0,1330.5,M,-37.4,M,,0000*7E
$GPGSA,A,2,,,,,,,,,,,,,50.0,50.0,50.0*06
$GPGSV,3,1,10,31,72,356,17,32,41,320,,14,36,058,17,22,34,138,*78
$GPGSV,3,2,10,01,26,281,15,25,18,047,,11,17,256,,20,14,317,*7B
$GPGSV,3,3,10,16,14,181,,18,03,138,*72
$GPRMC,050055.000,A,2742.9460,N,08518.5360,E,8.19,178.96,300413,,,E*67
$GPVTG,178.96,T,,M,8.19,N,15.2,K,N*35
$GPGGA,050100.000,2742.9901,N,08518.5239,E,1,03,50.0,1325.3,M,-37.4,M,,0000*7E
$GPGSA,A,2,31,14,01,,,,,,,,,,50.0,50.0,1.0*34
$GPGSV,3,1,10,31,72,356,18,32,41,320,,14,36,058,16,22,34,138,*76
$GPGSV,3,2,10,01,26,281,15,25,18,047,,11,17,256,,20,14,317,*7B
$GPGSV,3,3,10,16,14,181,,18,03,138,*72
$GPRMC,050100.000,A,2742.9901,N,08518.5239,E,2.42,1.04,300413,,,A*65
$GPVTG,1.04,T,,M,2.42,N,4.5,K,N*02
$GPGGA,050105.000,2743.1052,N,08518.5094,E,1,03,2.6,1332.9,M,-37.4,M,,0000*45
$GPGSA,A,2,31,01,22,,,,,,,,,,2.8,2.6,1.0*3F
$GPGSV,3,1,10,31,72,356,20,32,41,320,,14,36,058,,22,34,138,17*7C
$GPGSV,3,2,10,01,26,281,15,25,18,047,,11,17,256,,20,14,317,*7B
$GPGSV,3,3,10,16,14,181,,18,03,138,*72
$GPRMC,050105.000,A,2743.1052,N,08518.5094,E,8.13,22.26,300413,,,A*5C
$GPVTG,22.26,T,,M,8.13,N,15.1,K,N*09
$GPGGA,050110.000,2743.1016,N,08518.5139,E,6,00,50.0,1333.7,M,-37.4,M,,0000*7D
$GPGSA,A,2,,,,,,,,,,,,,50.0,50.0,50.0*06
$GPGSV,3,1,10,31,72,356,20,32,41,320,,14,36,058,,22,34,138,16*7D
$GPGSV,3,2,10,01,26,281,16,25,18,047,,11,17,256,,20,14,317,*78
$GPGSV,3,3,10,16,14,181,,18,03,138,*72
$GPRMC,050110.000,A,2743.1016,N,08518.5139,E,2.76,134.51,300413,,,E*65
$GPGGA,050115.000,2743.0989,N,08518.5170,E,6,00,50.0,1333.5,M,-37.4,M,,0000*79
$GPGSA,A,2,,,,,,,,,,,,,50.0,50.0,50.0*06
$GPGSV,3,1,10,31,72,356,20,32,41,320,,14,36,058,,22,34,138,16*7D
$GPGSV,3,2,10,01,26,281,15,25,18,047,,11,17,256,,20,14,317,*7B
$GPGSV,3,3,10,16,14,181,,18,03,138,*72
$GPRMC,050115.000,A,2743.0989,N,08518.5170,E,2.76,134.51,300413,,,E*63
$GPVTG,134.51,T,,M,2.76,N,5.1,K,N*07
$GPGGA,050120.000,2743.0970,N,08518.5002,E,1,03,2.6,1332.9,M,-37.4,M,,0000*45
$GPGSA,A,2,31,01,22,,,,,,,,,,2.8,2.6,1.0*3F
$GPGSV,3,1,10,31,72,356,20,32,41,320,,14,36,058,,22,34,138,15*7E
$GPGSV,3,2,10,01,26,281,15,25,18,047,,11,17,256,,20,14,317,*7B
$GPGSV,3,3,10,16,14,181,,18,03,138,*72
$GPRMC,050120.000,A,2743.0970,N,08518.5002,E,4.79,205.22,300413,,,A*6F
$GPVTG,205.22,T,,M,4.79,N,8.9,K,N*0E
$GPGGA,050125.000,2743.0910,N,08518.4970,E,6,00,50.0,1332.6,M,-37.4,M,,0000*71
$GPGSA,A,2,,,,,,,,,,,,,50.0,50.0,50.0*06
$GPGSV,3,1,10,31,72,356,19,32,41,320,,14,36,058,,22,34,138,*70
$GPGSV,3,2,10,01,26,281,,25,18,047,,11,17,256,,20,14,317,*7F
$GPGSV,3,3,10,16,14,181,,18,03,138,*72
$GPRMC,050125.000,A,2743.0910,N,08518.4970,E,4.79,205.22,300413,,,E*65
$GPVTG,205.22,T,,M,4.79,N,8.9,K,N*0E
$GPGGA,050130.000,2743.0849,N,08518.4939,E,6,00,50.0,1332.2,M,-37.4,M,,0000*71
$GPGSA,A,2,,,,,,,,,,,,,50.0,50.0,50.0*06
$GPGSV,3,1,10,31,72,356,19,32,41,320,,14,36,058,,22,34,138,*70
$GPGSV,3,2,10,01,26,281,,25,18,047,,11,17,256,,20,14,317,*7F
$GPGSV,3,3,10,16,14,181,,18,03,138,*72
$GPVTG,205.22,T,,M,4.79,N,8.9,K,N*0E
$GPGGA,050145.000,2743.1154,N,08518.5340,E,1,03,2.4,1317.5,M,-37.4,M,,0000*45
$GPGSA,A,2,31,14,22,,,,,,,,,,2.6,2.4,1.0*37
$GPGSV,3,1,10,31,72,356,18,32,41,320,,14,36,058,14,22,34,138,18*7D
$GPGSV,3,2,10,01,26,281,,25,18,047,,11,17,256,,20,14,317,*7F
$GPGSV,3,3,10,16,14,181,,18,03,138,*72
$GPRMC,050145.000,A,2743.1154,N,08518.5340,E,6.78,65.09,300413,,,A*58
$GPVTG,65.09,T,,M,6.78,N,12.5,K,N*07
$GPGGA,050150.000,2743.1194,N,08518.5437,E,6,00,50.0,1315.5,M,-37.4,M,,0000*7F
$GPGSA,A,2,,,,,,,,,,,,,50.0,50.0,50.0*06
$GPGSV,3,1,10,31,72,356,18,32,41,320,,14,36,058,,22,34,138,18*78
$GPGSV,3,2,10,01,26,281,,25,18,047,,11,17,256,,20,14,317,*7F
$GPGSV,3,3,10,16,14,181,,18,03,138,*72
$GPRMC,050150.000,A,2743.1194,N,08518.5437,E,6.78,65.09,300413,,,E*53
$GPVTG,65.09,T,,M,6.78,N,12.5,K,N*07
$GPGGA,050155.000,2743.1234,N,08518.5533,E,6,00,50.0,1313.5,M,-37.4,M,,0000*70
$GPGSA,A,2,,,,,,,,,,,,,50.0,50.0,50.0*06
$GPGSV,3,1,10,31,72,356,19,32,41,320,,14,36,058,,22,34,138,18*79
$GPGSV,3,2,10,01,26,281,,25,18,047,,11,17,256,,20,14,317,*7F
$GPGSV,3,3,10,16,14,181,,18,03,138,*72
$GPRMC,050155.000,A,2743.1234,N,08518.5533,E,6.78,65.09,300413,,,E*5A
$GPVTG,65.09,T,,M,6.78,N,12.5,K,N*07
$GPGGA,050315.000,2743.1069,N,08518.5009,E,1,03,2.4,1299.4,M,-37.4,M,,0000*45
$GPGSA,A,2,31,14,22,,,,,,,,,,2.6,2.4,1.0*37
$GPGSV,3,1,10,31,71,358,20,32,43,320,,14,35,059,15,22,33,139,14*70
$GPGSV,3,2,10,01,26,280,,25,17,046,,11,16,254,,16,15,181,*7A
$GPGSV,3,3,10,20,15,317,,18,02,138,*7A
$GPRMC,050315.000,A,2743.1069,N,08518.5009,E,2.34,209.72,300413,,,A*66
$GPGGA,050320.000,2743.1081,N,08518.5002,E,1,03,2.4,1297.6,M,-37.4,M,,0000*42
$GPGSA,A,2,31,14,22,,,,,,,,,,2.6,2.4,1.0*37
$GPGSV,3,1,10,31,71,358,20,32,43,320,,14,35,059,15,22,33,139,14*70
$GPGSV,3,2,10,01,26,280,,25,17,046,,11,16,254,,16,15,181,*7A
$GPGSV,3,3,10,20,15,317,,18,02,138,*7A
$GPRMC,050320.000,A,2743.1081,N,08518.5002,E,0.00,190.65,300413,,,A*6D
$GPVTG,190.65,T,,M,0.00,N,0.0,K,N*09
$GPGGA,050325.000,2743.1081,N,08518.5002,E,1,03,2.4,1297.6,M,-37.4,M,,0000*47
$GPGSA,A,2,31,14,22,,,,,,,,,,2.6,2.4,1.0*37
$GPGSV,3,1,10,31,71,358,20,32,43,320,,14,35,059,15,22,33,139,15*71
$GPGSV,3,2,10,01,26,280,,25,17,046,,11,16,254,,16,15,181,*7A
$GPGSV,3,3,10,20,15,317,,18,02,138,*7A
$GPRMC,050325.000,A,2743.1081,N,08518.5002,E,0.00,190.65,300413,,,A*68
$GPVTG,190.65,T,,M,0.00,N,0.0,K,N*09
$GPGGA,050330.000,2743.1097,N,08518.4958,E,1,03,2.4,1297.1,M,-37.4,M,,0000*44
$GPGSA,A,2,31,14,22,,,,,,,,,,2.6,2.4,1.0*37
$GPGSV,3,1,10,31,71,358,20,32,43,320,,14,35,059,15,22,33,139,15*71
$GPGSV,3,2,10,01,26,280,,25,17,046,,11,16,254,,16,15,181,*7A
$GPGSV,3,3,10,20,15,317,,18,02,138,*7A
$GPRMC,050330.000,A,2743.1097,N,08518.4958,E,0.00,272.90,300413,,,A*69
$GPVTG,272.90,T,,M,0.00,N,0.0,K,N*0C
$GPGGA,050335.000,2743.1074,N,08518.4865,E,1,03,2.4,1297.0,M,-37.4,M,,0000*42
$GPGSA,A,2,31,14,22,,,,,,,,,,2.6,2.4,1.0*37
$GPGSV,3,1,10,31,71,358,19,32,43,320,,14,35,059,15,22,33,139,15*7B
$GPGSV,3,2,10,01,26,280,,25,17,046,,11,16,254,,16,15,181,*7A
$GPGSV,3,3,10,20,15,317,,18,02,138,*7A
$GPRMC,050335.000,A,2743.1074,N,08518.4865,E,5.00,261.55,300413,,,A*60
$GPVTG,261.55,T,,M,5.00,N,9.3,K,N*08
$GPGGA,050340.000,2743.1086,N,08518.4889,E,1,03,2.4,1296.5,M,-37.4,M,,0000*4B
$GPGSA,A,2,31,14,22,,,,,,,,,,2.6,2.4,1.0*37
$GPGSV,3,1,10,31,71,358,19,32,43,320,,14,35,059,14,22,33,139,15*7A
$GPGSV,3,2,10,01,26,280,,25,17,046,,11,16,254,,16,15,181,*7A
$GPGSV,3,3,10,20,15,317,,18,02,138,*7A
$GPRMC,050340.000,A,2743.1086,N,08518.4889,E,3.03,151.87,300413,,,A*67
$GPGGA,050345.000,2743.1039,N,08518.4923,E,6,00,50.0,1296.4,M,-37.4,M,,0000*7D
$GPGSA,A,2,,,,,,,,,,,,,50.0,50.0,50.0*06
$GPGSV,3,1,10,31,71,358,18,32,43,320,,14,35,059,14,22,33,139,14*7A
$GPGSV,3,2,10,01,26,280,,25,17,046,,11,16,254,,16,15,181,*7A
$GPGSV,3,3,10,20,15,317,,18,02,138,*7A
$GPRMC,050345.000,A,2743.1039,N,08518.4923,E,3.60,157.29,300413,,,E*64
$GPVTG,157.29,T,,M,3.60,N,6.7,K,N*0E
$GPGGA,050350.000,2743.0992,N,08518.4945,E,6,00,50.0,1296.2,M,-37.4,M,,0000*76
$GPGSA,A,2,,,,,,,,,,,,,50.0,50.0,50.0*06
$GPGSV,3,1,10,31,71,358,18,32,43,320,,14,35,059,13,22,33,139,14*7D
$GPGSV,3,2,10,01,26,280,,25,17,046,,11,16,254,,16,15,181,*7A
$GPGSV,3,3,10,20,15,317,,18,02,138,*7A
$GPRMC,050350.000,A,2743.0992,N,08518.4945,E,3.60,157.29,300413,,,E*69
$GPVTG,157.29,T,,M,3.60,N,6.7,K,N*0E
$GPGGA,050355.000,2743.1173,N,08518.5047,E,6,00,50.0,1295.7,M,-37.4,M,,0000*79
$GPGSA,A,2,,,,,,,,,,,,,50.0,50.0,50.0*06
$GPGSV,3,1,10,31,71,358,18,32,43,320,,14,35,059,,22,33,139,13*78
$GPGSV,3,2,10,01,26,280,,25,17,046,,11,16,254,,16,15,181,*7A
$GPGSV,3,3,10,20,15,317,,18,02,138,*7A
$GPRMC,050355.000,A,2743.1173,N,08518.5047,E,4.49,22.28,300413,,,E*5E
$GPVTG,22.28,T,,M,4.49,N,8.3,K,N*3A
$GPGGA,050400.000,2743.1231,N,08518.5074,E,6,00,50.0,1295.4,M,-37.4,M,,00